country_name,country_code,year,alter_nuclear_energy_perc,co2_per_capita,gdp_per_capita,longitude,latitude,renewable_consumption_perc,fossil_fuel_energy_perc,forest_area_perc,coal_source_perc
Afghanistan,AFG,1960,NULL,0.0460567,NULL,67.709953,33.939110,NULL,NULL,NULL,NULL
"Africa Eastern and Southern",AFE,1960,NULL,0.9060596,127.65,NULL,NULL,NULL,NULL,NULL,NULL
"Africa Western and Central",AFW,1960,NULL,0.0908795,107.96,NULL,NULL,NULL,NULL,NULL,NULL
Albania,ALB,1960,NULL,1.2581949,NULL,20.168331,41.153332,NULL,NULL,NULL,NULL
Algeria,DZA,1960,NULL,0.5571203,246.30,1.659626,28.033886,NULL,NULL,NULL,NULL
"American Samoa",ASM,1960,NULL,NULL,NULL,-170.132217,-14.270972,NULL,NULL,NULL,NULL
Andorra,AND,1960,NULL,NULL,NULL,1.601554,42.546245,NULL,NULL,NULL,NULL
Angola,AGO,1960,NULL,0.1008352,NULL,17.873887,-11.202692,NULL,NULL,NULL,NULL
"Antigua and Barbuda",ATG,1960,NULL,0.6774182,NULL,-61.796428,17.060816,NULL,NULL,NULL,NULL
"Arab World",ARB,1960,NULL,0.6092683,NULL,NULL,NULL,NULL,NULL,NULL,NULL
Argentina,ARG,1960,NULL,2.3833427,NULL,-63.616672,-38.416097,NULL,NULL,NULL,NULL
Armenia,ARM,1960,NULL,NULL,NULL,45.038189,40.069099,NULL,NULL,NULL,NULL
Aruba,ABW,1960,NULL,204.6316964,NULL,-69.968338,12.521110,NULL,NULL,NULL,NULL
Australia,AUS,1960,1.0921226,8.5829366,NULL,133.775136,-25.274398,NULL,85.9066921,NULL,74.4230500
Austria,AUT,1960,8.9643361,4.3733188,935.46,14.550072,47.516231,NULL,85.4407471,NULL,13.8647844
Azerbaijan,AZE,1960,NULL,NULL,NULL,47.576927,40.143105,NULL,NULL,NULL,NULL
"Bahamas, The",BHS,1960,NULL,3.7496257,1550.27,-77.396280,25.034280,NULL,NULL,NULL,NULL
Bahrain,BHR,1960,NULL,3.5444348,NULL,50.637772,25.930414,NULL,NULL,NULL,NULL
Bangladesh,BGD,1960,NULL,0.2948050,NULL,90.356331,23.684994,NULL,NULL,NULL,NULL
Barbados,BRB,1960,NULL,0.7461480,NULL,-59.543198,13.193887,NULL,NULL,NULL,NULL
Belarus,BLR,1960,NULL,NULL,NULL,27.953389,53.709807,NULL,NULL,NULL,NULL
Belgium,BEL,1960,0.0641396,9.9415941,1273.69,4.469936,50.503887,NULL,99.9220586,NULL,85.3550686
Belize,BLZ,1960,NULL,0.4779511,304.90,-88.497650,17.189877,NULL,NULL,NULL,NULL
Benin,BEN,1960,NULL,0.0663542,93.02,2.315834,9.307690,NULL,NULL,NULL,NULL
Bermuda,BMU,1960,NULL,3.5513739,1902.40,-64.757370,32.321384,NULL,NULL,NULL,NULL
Bhutan,BTN,1960,NULL,NULL,NULL,90.433601,27.514162,NULL,NULL,NULL,NULL
Bolivia,BOL,1960,NULL,0.2747522,NULL,-63.588653,-16.290154,NULL,NULL,NULL,NULL
"Bosnia and Herzegovina",BIH,1960,NULL,NULL,NULL,17.679076,43.915886,NULL,NULL,NULL,NULL
Botswana,BWA,1960,NULL,NULL,60.49,24.684866,-22.328474,NULL,NULL,NULL,NULL
Brazil,BRA,1960,NULL,0.6498859,NULL,-51.925280,-14.235004,NULL,NULL,NULL,NULL
"British Virgin Islands",VGB,1960,NULL,NULL,NULL,-64.639968,18.420695,NULL,NULL,NULL,NULL
"Brunei Darussalam",BRN,1960,NULL,4.0840687,NULL,114.727669,4.535277,NULL,NULL,NULL,NULL
Bulgaria,BGR,1960,NULL,2.8339011,NULL,25.485830,42.733883,NULL,NULL,NULL,NULL
"Burkina Faso",BFA,1960,NULL,0.0091119,68.42,-1.561593,12.238333,NULL,NULL,NULL,NULL
Burundi,BDI,1960,NULL,NULL,70.05,29.918886,-3.373056,NULL,NULL,NULL,NULL
"Cabo Verde",CPV,1960,NULL,0.1090450,NULL,-24.013197,16.002082,NULL,NULL,NULL,NULL
Cambodia,KHM,1960,NULL,0.0410124,NULL,104.990963,12.565679,NULL,NULL,NULL,NULL
Cameroon,CMR,1960,NULL,0.0524169,118.64,12.354722,7.369722,NULL,NULL,NULL,NULL
Canada,CAN,1960,12.0622960,10.7708473,2259.29,-106.346771,56.130366,NULL,83.1924410,NULL,3.3777142
"Caribbean small states",CSS,1960,NULL,1.4013363,448.25,NULL,NULL,NULL,NULL,NULL,NULL
"Cayman Islands",CYM,1960,NULL,1.3978399,NULL,-80.566956,19.513469,NULL,NULL,NULL,NULL
"Central African Republic",CAF,1960,NULL,0.0586068,74.69,20.939444,6.611111,NULL,NULL,NULL,NULL
"Central Europe and the Baltics",CEB,1960,0.1003260,5.2289033,NULL,NULL,NULL,NULL,98.2469031,NULL,NULL
Chad,TCD,1960,NULL,0.0183252,104.47,18.732207,15.454166,NULL,NULL,NULL,NULL
"Channel Islands",CHI,1960,NULL,NULL,NULL,NULL,NULL,NULL,NULL,NULL,NULL
Chile,CHL,1960,NULL,1.6587868,NULL,-71.542969,-35.675147,NULL,NULL,NULL,NULL
China,CHN,1960,NULL,1.1703814,89.52,104.195397,35.861660,NULL,NULL,NULL,NULL
Colombia,COL,1960,NULL,1.0219278,251.04,-74.297333,4.570868,NULL,NULL,NULL,NULL
Comoros,COM,1960,NULL,0.0575601,NULL,43.872219,-11.875001,NULL,NULL,NULL,NULL
"Congo, Dem. Rep.",COD,1960,NULL,0.1522280,NULL,21.758664,-4.038333,NULL,NULL,NULL,NULL
"Congo, Rep.",COG,1960,NULL,0.2196770,129.37,15.827659,-0.228021,NULL,NULL,NULL,NULL
"Costa Rica",CRI,1960,NULL,0.3692387,381.36,-83.753428,9.748917,NULL,NULL,NULL,NULL
"Cote d'Ivoire",CIV,1960,NULL,0.1318779,155.90,-5.547080,7.539989,NULL,NULL,NULL,NULL
Croatia,HRV,1960,NULL,NULL,NULL,15.200000,45.100000,NULL,NULL,NULL,NULL
Cuba,CUB,1960,NULL,1.9184217,NULL,-77.781167,21.521757,NULL,NULL,NULL,NULL
Curacao,CUW,1960,NULL,NULL,NULL,NULL,NULL,NULL,NULL,NULL,NULL
Cyprus,CYP,1960,NULL,1.5488966,NULL,33.429859,35.126413,NULL,NULL,NULL,NULL
"Czech Republic",CZE,1960,NULL,NULL,NULL,15.472962,49.817492,NULL,NULL,NULL,NULL
Denmark,DNK,1960,0.0244139,6.5026831,NULL,9.501785,56.263920,NULL,99.8740469,NULL,71.6245487
Djibouti,DJI,1960,NULL,0.4823038,NULL,42.590275,11.825138,NULL,NULL,NULL,NULL
Dominica,DMA,1960,NULL,0.1832889,NULL,-61.370976,15.414999,NULL,NULL,NULL,NULL
"Dominican Republic",DOM,1960,NULL,0.3161378,204.11,-70.162651,18.735693,NULL,NULL,NULL,NULL
"Early-demographic dividend",EAR,1960,0.8061092,0.6167542,NULL,NULL,NULL,NULL,44.1990719,NULL,NULL
"East Asia & Pacific",EAS,1960,5.3330547,1.1829726,145.35,NULL,NULL,NULL,91.1480562,NULL,NULL
"East Asia & Pacific (excluding high income)",EAP,1960,NULL,0.9525704,88.25,NULL,NULL,NULL,NULL,NULL,NULL
"East Asia & Pacific (IDA & IBRD countries)",TEA,1960,NULL,0.9379746,89.20,NULL,NULL,NULL,NULL,NULL,NULL
Ecuador,ECU,1960,NULL,0.3881954,455.46,-78.183406,-1.831239,NULL,NULL,NULL,NULL
"Egypt, Arab Rep.",EGY,1960,NULL,0.6027932,NULL,30.802498,26.820553,NULL,NULL,NULL,NULL
"El Salvador",SLV,1960,NULL,0.2240244,NULL,-88.896530,13.794185,NULL,NULL,NULL,NULL
"Equatorial Guinea",GNQ,1960,NULL,0.0861681,NULL,10.267895,1.650801,NULL,NULL,NULL,NULL
Eritrea,ERI,1960,NULL,NULL,NULL,39.782334,15.179384,NULL,NULL,NULL,NULL
Estonia,EST,1960,NULL,NULL,NULL,25.013607,58.595272,NULL,NULL,NULL,NULL
Eswatini,SWZ,1960,NULL,0.0980545,104.21,NULL,NULL,NULL,NULL,NULL,NULL
Ethiopia,ETH,1960,NULL,0.0158922,NULL,40.489673,9.145000,NULL,NULL,NULL,NULL
"Euro area",EMU,1960,3.8132885,NULL,2653.62,NULL,NULL,NULL,94.0215065,NULL,48.3167077
"Europe & Central Asia",ECS,1960,3.5011104,7.2533560,NULL,NULL,NULL,NULL,93.7528761,NULL,NULL
"Europe & Central Asia (excluding high income)",ECA,1960,0.8061092,8.8488068,NULL,NULL,NULL,NULL,44.1990719,NULL,NULL
"Europe & Central Asia (IDA & IBRD countries)",TEC,1960,0.2166399,8.5464115,NULL,NULL,NULL,NULL,89.3397595,NULL,NULL
"European Union",EUU,1960,3.7112028,4.7292857,NULL,NULL,NULL,NULL,93.7610629,NULL,42.9962153
"Faroe Islands",FRO,1960,NULL,1.6945471,NULL,-6.911806,61.892635,NULL,NULL,NULL,NULL
Fiji,FJI,1960,NULL,0.4939285,285.47,179.414413,-16.578193,NULL,NULL,NULL,NULL
Finland,FIN,1960,4.6562686,3.4098467,1179.35,25.748151,61.924110,NULL,45.2459684,NULL,29.6804184
"Fragile and conflict affected situations",FCS,1960,NULL,0.4999882,140.73,NULL,NULL,NULL,NULL,NULL,NULL
France,FRA,1960,4.4865473,5.8174353,1334.69,2.213749,46.227638,NULL,95.5201806,NULL,36.4686447
"French Polynesia",PYF,1960,NULL,0.4696465,NULL,-149.406843,-17.679742,NULL,NULL,NULL,NULL
Gabon,GAB,1960,NULL,0.2635380,282.42,11.609444,-0.803689,NULL,NULL,NULL,NULL
"Gambia, The",GMB,1960,NULL,0.0502261,NULL,-15.310139,13.443182,NULL,NULL,NULL,NULL
Georgia,GEO,1960,NULL,NULL,NULL,43.356892,42.315407,NULL,NULL,NULL,NULL
Germany,DEU,1960,0.7279096,NULL,NULL,10.451526,51.165691,NULL,99.0201589,NULL,87.0287713
Ghana,GHA,1960,NULL,0.2205098,183.45,-1.023194,7.946527,NULL,NULL,NULL,NULL
Gibraltar,GIB,1960,NULL,2.0354825,NULL,-5.345374,36.137741,NULL,NULL,NULL,NULL
Greece,GRC,1960,1.6604771,1.1289205,520.32,21.824312,39.074208,NULL,98.3110386,NULL,53.3624454
Greenland,GRL,1960,NULL,6.8826769,NULL,-42.604303,71.706936,NULL,NULL,NULL,NULL
Grenada,GRD,1960,NULL,0.2446651,NULL,-61.604171,12.262776,NULL,NULL,NULL,NULL
Guam,GUM,1960,NULL,NULL,NULL,144.793731,13.444304,NULL,NULL,NULL,NULL
Guatemala,GTM,1960,NULL,0.3259453,252.76,-90.230759,15.783471,NULL,NULL,NULL,NULL
Guinea,GIN,1960,NULL,0.1175400,NULL,-9.696645,9.945587,NULL,NULL,NULL,NULL
Guinea-Bissau,GNB,1960,NULL,0.0297578,NULL,-15.180413,11.803749,NULL,NULL,NULL,NULL
Guyana,GUY,1960,NULL,1.1543284,NULL,-58.930180,4.860416,NULL,NULL,NULL,NULL
Haiti,HTI,1960,NULL,0.0739819,70.66,-72.285215,18.971187,NULL,NULL,NULL,NULL
"Heavily indebted poor countries (HIPC)",HPC,1960,NULL,0.1214864,92.73,NULL,NULL,NULL,NULL,NULL,NULL
"High income",HIC,1960,2.7390950,7.6324063,1368.73,NULL,NULL,NULL,94.4273241,NULL,46.3920665
Honduras,HND,1960,NULL,0.3021903,164.64,-86.241905,15.199999,NULL,NULL,NULL,NULL
"Hong Kong SAR, China",HKG,1960,NULL,0.9609823,429.44,114.109497,22.396428,NULL,NULL,NULL,NULL
Hungary,HUN,1960,NULL,4.5444652,NULL,19.503304,47.162494,NULL,NULL,NULL,NULL
"IBRD only",IBD,1960,0.2166399,1.9202541,NULL,NULL,NULL,NULL,89.3397595,NULL,NULL
Iceland,ISL,1960,27.8722720,6.9131933,1414.98,-19.020835,64.963051,NULL,72.1277280,NULL,0.0000000
"IDA & IBRD total",IBT,1960,0.2166399,1.6566109,NULL,NULL,NULL,NULL,89.3397595,NULL,NULL
"IDA blend",IDB,1960,NULL,0.3475071,100.20,NULL,NULL,NULL,NULL,NULL,NULL
"IDA only",IDX,1960,NULL,0.2067736,NULL,NULL,NULL,NULL,NULL,NULL,NULL
"IDA total",IDA,1960,NULL,0.2666224,92.34,NULL,NULL,NULL,NULL,NULL,NULL
India,IND,1960,NULL,0.2676342,82.19,78.962880,20.593684,NULL,NULL,NULL,NULL
Indonesia,IDN,1960,NULL,0.2439204,NULL,113.921327,-0.789275,NULL,NULL,NULL,NULL
"Iran, Islamic Rep.",IRN,1960,NULL,1.7068770,191.68,53.688046,32.427908,NULL,NULL,NULL,NULL
Iraq,IRQ,1960,NULL,1.1338406,NULL,43.679291,33.223191,NULL,NULL,NULL,NULL
Ireland,IRL,1960,2.1486208,3.9527268,685.61,-8.243890,53.412910,NULL,67.2418697,NULL,53.3156499
"Isle of Man",IMN,1960,NULL,NULL,NULL,-4.548056,54.236107,NULL,NULL,NULL,NULL
Israel,ISR,1960,NULL,3.0598518,1229.17,34.851612,31.046051,NULL,NULL,NULL,NULL
Italy,ITA,1960,14.4171709,2.1784448,804.49,12.567380,41.871940,NULL,85.6104209,NULL,3.8185390
Jamaica,JAM,1960,NULL,0.9029446,429.25,-77.297508,18.109581,NULL,NULL,NULL,NULL
Japan,JPN,1960,6.2236195,2.4972232,475.32,138.252924,36.204824,NULL,93.7763805,NULL,32.2077922
Jordan,JOR,1960,NULL,0.7977702,NULL,36.238414,30.585164,NULL,NULL,NULL,NULL
Kazakhstan,KAZ,1960,NULL,NULL,NULL,66.923684,48.019573,NULL,NULL,NULL,NULL
Kenya,KEN,1960,NULL,0.2989568,97.45,37.906193,-0.023559,NULL,NULL,NULL,NULL
Kiribati,KIR,1960,NULL,NULL,NULL,-168.734039,-3.370417,NULL,NULL,NULL,NULL
"Korea, Dem. People's Rep.",PRK,1960,NULL,2.0848014,NULL,127.510093,40.339852,NULL,NULL,NULL,NULL
"Korea, Rep.",KOR,1960,NULL,0.5018373,158.25,127.766922,35.907757,NULL,NULL,NULL,NULL
Kosovo,XKX,1960,NULL,NULL,NULL,20.902977,42.602636,NULL,NULL,NULL,NULL
Kuwait,KWT,1960,NULL,29.0060292,NULL,47.481766,29.311660,NULL,NULL,NULL,NULL
"Kyrgyz Republic",KGZ,1960,NULL,NULL,NULL,74.766098,41.204380,NULL,NULL,NULL,NULL
"Lao PDR",LAO,1960,NULL,0.0380378,NULL,102.495496,19.856270,NULL,NULL,NULL,NULL
"Late-demographic dividend",LTE,1960,0.4882387,2.6856373,NULL,NULL,NULL,NULL,96.0261261,NULL,NULL
"Latin America & Caribbean",LCN,1960,NULL,1.3766663,NULL,NULL,NULL,NULL,NULL,NULL,NULL
"Latin America & Caribbean (excluding high income)",LAC,1960,NULL,1.2952074,NULL,NULL,NULL,NULL,NULL,NULL,NULL
"Latin America & the Caribbean (IDA & IBRD countries)",TLA,1960,NULL,1.2996538,NULL,NULL,NULL,NULL,NULL,NULL,NULL
Latvia,LVA,1960,NULL,NULL,NULL,24.603189,56.879635,NULL,NULL,NULL,NULL
"Least developed countries: UN classification",LDC,1960,NULL,0.1396756,NULL,NULL,NULL,NULL,NULL,NULL,NULL
Lebanon,LBN,1960,NULL,1.4302831,NULL,35.862285,33.854721,NULL,NULL,NULL,NULL
Lesotho,LSO,1960,NULL,NULL,41.30,28.233608,-29.609988,NULL,NULL,NULL,NULL
Liberia,LBR,1960,NULL,0.1475120,NULL,-9.429499,6.428055,NULL,NULL,NULL,NULL
Libya,LBY,1960,NULL,0.4784972,NULL,17.228331,26.335100,NULL,NULL,NULL,NULL
Liechtenstein,LIE,1960,NULL,NULL,NULL,9.555373,47.166000,NULL,NULL,NULL,NULL
Lithuania,LTU,1960,NULL,NULL,NULL,23.881275,55.169438,NULL,NULL,NULL,NULL
"Low & middle income",LMY,1960,0.8061092,1.5857199,NULL,NULL,NULL,NULL,44.1990719,NULL,NULL
"Low income",LIC,1960,NULL,0.2739055,NULL,NULL,NULL,NULL,NULL,NULL,NULL
"Lower middle income",LMC,1960,NULL,0.4518625,NULL,NULL,NULL,NULL,NULL,NULL,NULL
Luxembourg,LUX,1960,0.0520576,36.6851833,2242.02,6.129583,49.815273,NULL,99.9245165,NULL,97.8142077
"Macao SAR, China",MAC,1960,NULL,0.3059567,NULL,113.543873,22.198745,NULL,NULL,NULL,NULL
Madagascar,MDG,1960,NULL,0.0783829,131.99,46.869107,-18.766947,NULL,NULL,NULL,NULL
Malawi,MWI,1960,NULL,NULL,44.52,34.301525,-13.254308,NULL,NULL,NULL,NULL
Malaysia,MYS,1960,NULL,0.4374499,234.94,101.975766,4.210484,NULL,NULL,NULL,NULL
Maldives,MDV,1960,NULL,NULL,NULL,73.220680,3.202778,NULL,NULL,NULL,NULL
Mali,MLI,1960,NULL,0.0229896,NULL,-3.996166,17.570692,NULL,NULL,NULL,NULL
Malta,MLT,1960,NULL,1.0443454,NULL,14.375416,35.937496,NULL,NULL,NULL,NULL
"Marshall Islands",MHL,1960,NULL,NULL,NULL,171.184478,7.131474,NULL,NULL,NULL,NULL
Mauritania,MRT,1960,NULL,0.0431221,NULL,-10.940835,21.007890,NULL,NULL,NULL,NULL
Mauritius,MUS,1960,NULL,0.2725149,NULL,57.552152,-20.348404,NULL,NULL,NULL,NULL
Mexico,MEX,1960,NULL,1.6709901,NULL,-102.552784,23.634501,NULL,NULL,NULL,NULL
"Micronesia, Fed. Sts.",FSM,1960,NULL,NULL,NULL,150.550812,7.425554,NULL,NULL,NULL,NULL
"Middle East & North Africa",MEA,1960,NULL,0.9407399,NULL,NULL,NULL,NULL,NULL,NULL,NULL
"Middle East & North Africa (excluding high income)",MNA,1960,NULL,0.8316133,NULL,NULL,NULL,NULL,NULL,NULL,NULL
"Middle East & North Africa (IDA & IBRD countries)",TMN,1960,NULL,0.8260352,NULL,NULL,NULL,NULL,NULL,NULL,NULL
"Middle income",MIC,1960,0.8061092,1.6733018,NULL,NULL,NULL,NULL,44.1990719,NULL,NULL
Moldova,MDA,1960,NULL,NULL,NULL,28.369885,47.411631,NULL,NULL,NULL,NULL
Monaco,MCO,1960,NULL,NULL,NULL,7.412841,43.750298,NULL,NULL,NULL,NULL
Mongolia,MNG,1960,NULL,1.3547169,NULL,103.846656,46.862496,NULL,NULL,NULL,NULL
Montenegro,MNE,1960,NULL,NULL,NULL,19.374390,42.708678,NULL,NULL,NULL,NULL
Morocco,MAR,1960,NULL,0.2953580,164.80,-7.092620,31.791702,NULL,NULL,NULL,NULL
Mozambique,MOZ,1960,NULL,0.2623343,NULL,35.529562,-18.665695,NULL,NULL,NULL,NULL
Myanmar,MMR,1960,NULL,0.1250059,NULL,95.956223,21.913965,NULL,NULL,NULL,NULL
Namibia,NAM,1960,NULL,NULL,NULL,18.490410,-22.957640,NULL,NULL,NULL,NULL
Nauru,NRU,1960,NULL,NULL,NULL,166.931503,-0.522778,NULL,NULL,NULL,NULL
Nepal,NPL,1960,NULL,0.0079835,50.30,84.124008,28.394857,NULL,NULL,NULL,NULL
Netherlands,NLD,1960,0.0000000,6.3991796,1068.78,5.291266,52.132633,NULL,99.9516207,NULL,79.6924195
"New Caledonia",NCL,1960,NULL,10.9081646,NULL,165.618042,-20.904305,NULL,NULL,NULL,NULL
"New Zealand",NZL,1960,20.7205317,4.8670697,2312.95,174.885971,-40.900557,NULL,79.2794433,NULL,14.4167383
Nicaragua,NIC,1960,NULL,0.2998733,126.25,-85.207229,12.865416,NULL,NULL,NULL,NULL
Niger,NER,1960,NULL,0.0086568,132.65,8.081666,17.607789,NULL,NULL,NULL,NULL
Nigeria,NGA,1960,NULL,0.0754710,92.96,8.675277,9.081999,NULL,NULL,NULL,NULL
"North America",NAC,1960,2.0119932,15.5299950,2939.45,NULL,NULL,NULL,94.6684419,NULL,47.4913534
"North Macedonia",MKD,1960,NULL,NULL,NULL,NULL,NULL,NULL,NULL,NULL,NULL
"Northern Mariana Islands",MNP,1960,NULL,NULL,NULL,145.384690,17.330830,NULL,NULL,NULL,NULL
Norway,NOR,1960,39.3360666,3.6585637,1441.76,8.468946,60.472024,NULL,60.4976248,NULL,0.0000000
"Not classified",INX,1960,NULL,NULL,NULL,NULL,NULL,NULL,NULL,NULL,NULL
"OECD members",OED,1960,2.7278277,7.1832939,1293.09,NULL,NULL,NULL,94.1345468,NULL,46.5464951
Oman,OMN,1960,NULL,NULL,NULL,55.923255,21.512583,NULL,NULL,NULL,NULL
"Other small states",OSS,1960,27.8722720,0.8130027,NULL,NULL,NULL,NULL,72.1277280,NULL,NULL
"Pacific island small states",PSS,1960,NULL,0.3755942,NULL,NULL,NULL,NULL,NULL,NULL,NULL
Pakistan,PAK,1960,NULL,0.3146262,83.34,69.345116,30.375321,NULL,NULL,NULL,NULL
Palau,PLW,1960,NULL,1.5014843,NULL,134.582520,7.514980,NULL,NULL,NULL,NULL
Panama,PAN,1960,NULL,0.8803350,NULL,-80.782127,8.537981,NULL,NULL,NULL,NULL
"Papua New Guinea",PNG,1960,NULL,0.0796517,102.18,143.955550,-6.314993,NULL,NULL,NULL,NULL
Paraguay,PRY,1960,NULL,0.1598543,NULL,-58.443832,-23.442503,NULL,NULL,NULL,NULL
Peru,PER,1960,NULL,0.8048975,253.26,-75.015152,-9.189967,NULL,NULL,NULL,NULL
Philippines,PHL,1960,NULL,0.3172887,NULL,121.774017,12.879721,NULL,NULL,NULL,NULL
Poland,POL,1960,0.1003260,6.7403626,NULL,19.145136,51.919438,NULL,98.2469031,NULL,97.4626050
Portugal,PRT,1960,8.9853348,0.9285781,360.50,-8.224454,39.399872,NULL,67.3557988,NULL,1.0978957
"Post-demographic dividend",PST,1960,2.8136395,7.8605248,1348.51,NULL,NULL,NULL,94.3743744,NULL,44.0346265
"Pre-demographic dividend",PRE,1960,NULL,0.1565329,NULL,NULL,NULL,NULL,NULL,NULL,NULL
"Puerto Rico",PRI,1960,NULL,NULL,717.51,-66.590149,18.220833,NULL,NULL,NULL,NULL
Qatar,QAT,1960,NULL,3.7147500,NULL,51.183884,25.354826,NULL,NULL,NULL,NULL
Romania,ROU,1960,NULL,2.9038120,NULL,24.966760,45.943161,NULL,NULL,NULL,NULL
"Russian Federation",RUS,1960,NULL,12.0823486,NULL,105.318756,61.524010,NULL,NULL,NULL,NULL
Rwanda,RWA,1960,NULL,0.0362256,40.54,29.873888,-1.940278,NULL,NULL,NULL,NULL
Samoa,WSM,1960,NULL,0.1350309,NULL,-172.104629,-13.759029,NULL,NULL,NULL,NULL
"San Marino",SMR,1960,NULL,NULL,NULL,12.457777,43.942360,NULL,NULL,NULL,NULL
"Sao Tome and Principe",STP,1960,NULL,0.1711046,NULL,6.613081,0.186360,NULL,NULL,NULL,NULL
"Saudi Arabia",SAU,1960,NULL,0.6550563,NULL,45.079162,23.885942,NULL,NULL,NULL,NULL
Senegal,SEN,1960,NULL,0.2584362,312.99,-14.452362,14.497401,NULL,NULL,NULL,NULL
Serbia,SRB,1960,NULL,NULL,NULL,21.005859,44.016521,NULL,NULL,NULL,NULL
Seychelles,SYC,1960,NULL,NULL,288.06,55.491977,-4.679574,NULL,NULL,NULL,NULL
"Sierra Leone",SLE,1960,NULL,0.3085318,138.94,-11.779889,8.460555,NULL,NULL,NULL,NULL
Singapore,SGP,1960,NULL,0.8463678,428.06,103.819836,1.352083,NULL,NULL,NULL,NULL
"Sint Maarten (Dutch part)",SXM,1960,NULL,NULL,NULL,NULL,NULL,NULL,NULL,NULL,NULL
"Slovak Republic",SVK,1960,NULL,NULL,NULL,19.699024,48.669026,NULL,NULL,NULL,NULL
Slovenia,SVN,1960,NULL,NULL,NULL,14.995463,46.151241,NULL,NULL,NULL,NULL
"Small states",SST,1960,27.8722720,1.0910899,NULL,NULL,NULL,NULL,72.1277280,NULL,NULL
"Solomon Islands",SLB,1960,NULL,0.0933499,NULL,160.156194,-9.645710,NULL,NULL,NULL,NULL
Somalia,SOM,1960,NULL,0.0306031,65.48,46.199616,5.152149,NULL,NULL,NULL,NULL
"South Africa",ZAF,1960,NULL,5.7272227,443.01,22.937506,-30.559482,NULL,NULL,NULL,NULL
"South Asia",SAS,1960,NULL,0.2647330,82.30,NULL,NULL,NULL,NULL,NULL,NULL
"South Asia (IDA & IBRD)",TSA,1960,NULL,0.2647330,82.30,NULL,NULL,NULL,NULL,NULL,NULL
"South Sudan",SSD,1960,NULL,NULL,NULL,NULL,NULL,NULL,NULL,NULL,NULL
Spain,ESP,1960,8.3140332,1.6065927,396.39,-3.749220,40.463667,NULL,91.7652607,NULL,12.8988933
"Sri Lanka",LKA,1960,NULL,0.2287587,NULL,80.771797,7.873054,NULL,NULL,NULL,NULL
"St. Kitts and Nevis",KNA,1960,NULL,0.2148675,241.54,-62.782998,17.357822,NULL,NULL,NULL,NULL
"St. Lucia",LCA,1960,NULL,0.1635265,NULL,-60.978893,13.909444,NULL,NULL,NULL,NULL
"St. Martin (French part)",MAF,1960,NULL,NULL,NULL,NULL,NULL,NULL,NULL,NULL,NULL
"St. Vincent and the Grenadines",VCT,1960,NULL,0.1358651,161.38,-61.287228,12.984305,NULL,NULL,NULL,NULL
"Sub-Saharan Africa",SSF,1960,NULL,0.5560196,117.25,NULL,NULL,NULL,NULL,NULL,NULL
"Sub-Saharan Africa (excluding high income)",SSA,1960,NULL,0.5560987,117.22,NULL,NULL,NULL,NULL,NULL,NULL
"Sub-Saharan Africa (IDA & IBRD countries)",TSS,1960,NULL,0.5560196,117.25,NULL,NULL,NULL,NULL,NULL,NULL
Sudan,SDN,1960,NULL,0.1803244,125.86,30.217636,12.862807,NULL,NULL,NULL,NULL
Suriname,SUR,1960,NULL,1.5031299,346.16,-56.027783,3.919305,NULL,NULL,NULL,NULL
Sweden,SWE,1960,13.2110982,6.5764066,2114.00,18.643501,60.128161,NULL,74.4934487,NULL,1.0762537
Switzerland,CHE,1960,23.6818236,3.6643660,1787.36,8.227512,46.818188,NULL,74.5719787,NULL,0.0000000
"Syrian Arab Republic",SYR,1960,NULL,0.7047738,187.54,38.996815,34.802075,NULL,NULL,NULL,NULL
Tajikistan,TJK,1960,NULL,NULL,NULL,71.276093,38.861034,NULL,NULL,NULL,NULL
Tanzania,TZA,1960,NULL,0.0824442,NULL,34.888822,-6.369028,NULL,NULL,NULL,NULL
Thailand,THA,1960,NULL,0.1355858,100.77,100.992541,15.870032,NULL,NULL,NULL,NULL
Timor-Leste,TLS,1960,NULL,NULL,NULL,125.727539,-8.874217,NULL,NULL,NULL,NULL
Togo,TGO,1960,NULL,0.0417625,76.64,0.824782,8.619543,NULL,NULL,NULL,NULL
Tonga,TON,1960,NULL,0.1786631,NULL,-175.198242,-21.178986,NULL,NULL,NULL,NULL
"Trinidad and Tobago",TTO,1960,NULL,3.0443988,631.71,-61.222503,10.691803,NULL,NULL,NULL,NULL
Tunisia,TUN,1960,NULL,0.4133700,NULL,9.537499,33.886917,NULL,NULL,NULL,NULL
Turkey,TUR,1960,0.8061092,0.6122715,NULL,35.243322,38.963745,NULL,44.1990719,NULL,54.6714032
Turkmenistan,TKM,1960,NULL,NULL,NULL,59.556278,38.969719,NULL,NULL,NULL,NULL
"Turks and Caicos Islands",TCA,1960,NULL,NULL,NULL,-71.797928,21.694025,NULL,NULL,NULL,NULL
Tuvalu,TUV,1960,NULL,NULL,NULL,177.649330,-7.109535,NULL,NULL,NULL,NULL
Uganda,UGA,1960,NULL,0.0623170,62.51,32.290275,1.373333,NULL,NULL,NULL,NULL
Ukraine,UKR,1960,NULL,NULL,NULL,31.165580,48.379433,NULL,NULL,NULL,NULL
"United Arab Emirates",ARE,1960,NULL,0.1190365,NULL,53.847818,23.424076,NULL,NULL,NULL,NULL
"United Kingdom",GBR,1960,0.5353439,11.1507592,1397.59,-3.435973,55.378051,NULL,99.4647102,NULL,81.0858535
"United States",USA,1960,1.2612615,15.9997792,3007.12,-95.712891,37.090240,NULL,95.5256696,NULL,53.9120072
"Upper middle income",UMC,1960,0.8061092,2.6058498,NULL,NULL,NULL,NULL,44.1990719,NULL,NULL
Uruguay,URY,1960,NULL,1.7015853,NULL,-55.765835,-32.522779,NULL,NULL,NULL,NULL
Uzbekistan,UZB,1960,NULL,NULL,NULL,64.585262,41.377491,NULL,NULL,NULL,NULL
Vanuatu,VUT,1960,NULL,NULL,NULL,166.959158,-15.376706,NULL,NULL,NULL,NULL
"Venezuela, RB",VEN,1960,NULL,7.0094141,955.45,-66.589730,6.423750,NULL,NULL,NULL,NULL
Vietnam,VNM,1960,NULL,0.1819467,NULL,108.277199,14.058324,NULL,NULL,NULL,NULL
"Virgin Islands (U.S.)",VIR,1960,NULL,NULL,NULL,-64.896335,18.335765,NULL,NULL,NULL,NULL
"West Bank and Gaza",PSE,1960,NULL,NULL,NULL,34.308825,31.354676,NULL,NULL,NULL,NULL
World,WLD,1960,2.7278277,3.1211581,445.43,NULL,NULL,NULL,94.1345468,NULL,NULL
"Yemen, Rep.",YEM,1960,NULL,0.0110382,NULL,48.516388,15.552727,NULL,NULL,NULL,NULL
Zambia,ZMB,1960,NULL,NULL,232.19,27.849332,-13.133897,NULL,NULL,NULL,NULL
Zimbabwe,ZWE,1960,NULL,NULL,278.81,29.154857,-19.015438,NULL,NULL,NULL,NULL
Afghanistan,AFG,1961,NULL,0.0535889,NULL,67.709953,33.939110,NULL,NULL,NULL,NULL
"Africa Eastern and Southern",AFE,1961,NULL,0.9224739,130.35,NULL,NULL,NULL,NULL,NULL,NULL
"Africa Western and Central",AFW,1961,NULL,0.0952828,113.11,NULL,NULL,NULL,NULL,NULL,NULL
Albania,ALB,1961,NULL,1.3741860,NULL,20.168331,41.153332,NULL,NULL,NULL,NULL
Algeria,DZA,1961,NULL,0.5350245,214.77,1.659626,28.033886,NULL,NULL,NULL,NULL
"American Samoa",ASM,1961,NULL,NULL,NULL,-170.132217,-14.270972,NULL,NULL,NULL,NULL
Andorra,AND,1961,NULL,NULL,NULL,1.601554,42.546245,NULL,NULL,NULL,NULL
Angola,AGO,1961,NULL,0.0822041,NULL,17.873887,-11.202692,NULL,NULL,NULL,NULL
"Antigua and Barbuda",ATG,1961,NULL,0.8666667,NULL,-61.796428,17.060816,NULL,NULL,NULL,NULL
"Arab World",ARB,1961,NULL,0.6626177,NULL,NULL,NULL,NULL,NULL,NULL,NULL
Argentina,ARG,1961,NULL,2.4585510,NULL,-63.616672,-38.416097,NULL,NULL,NULL,NULL
Armenia,ARM,1961,NULL,NULL,NULL,45.038189,40.069099,NULL,NULL,NULL,NULL
Aruba,ABW,1961,NULL,208.8378793,NULL,-69.968338,12.521110,NULL,NULL,NULL,NULL
Australia,AUS,1961,1.2166931,8.6415690,NULL,133.775136,-25.274398,NULL,86.2519118,NULL,72.9985255
Austria,AUT,1961,8.7481008,4.4963616,1031.82,14.550072,47.516231,NULL,86.6094140,NULL,17.3759743
Azerbaijan,AZE,1961,NULL,NULL,NULL,47.576927,40.143105,NULL,NULL,NULL,NULL
"Bahamas, The",BHS,1961,NULL,4.7462452,1651.32,-77.396280,25.034280,NULL,NULL,NULL,NULL
Bahrain,BHR,1961,NULL,10.5489669,NULL,50.637772,25.930414,NULL,NULL,NULL,NULL
Bangladesh,BGD,1961,NULL,0.2969238,NULL,90.356331,23.684994,NULL,NULL,NULL,NULL
Barbados,BRB,1961,NULL,0.8387393,NULL,-59.543198,13.193887,NULL,NULL,NULL,NULL
Belarus,BLR,1961,NULL,NULL,NULL,27.953389,53.709807,NULL,NULL,NULL,NULL
Belgium,BEL,1961,0.0688430,10.1038720,1350.20,4.469936,50.503887,NULL,NULL,NULL,83.2678271
Belize,BLZ,1961,NULL,0.3872228,316.41,-88.497650,17.189877,NULL,NULL,NULL,NULL
Benin,BEN,1961,NULL,0.0520487,95.57,2.315834,9.307690,NULL,NULL,NULL,NULL
Bermuda,BMU,1961,NULL,3.8684835,1961.54,-64.757370,32.321384,NULL,NULL,NULL,NULL
Bhutan,BTN,1961,NULL,NULL,NULL,90.433601,27.514162,NULL,NULL,NULL,NULL
Bolivia,BOL,1961,NULL,0.2792815,NULL,-63.588653,-16.290154,NULL,NULL,NULL,NULL
"Bosnia and Herzegovina",BIH,1961,NULL,NULL,NULL,17.679076,43.915886,NULL,NULL,NULL,NULL
Botswana,BWA,1961,NULL,NULL,64.18,24.684866,-22.328474,NULL,NULL,NULL,NULL
Brazil,BRA,1961,NULL,0.6621305,NULL,-51.925280,-14.235004,NULL,NULL,NULL,NULL
"British Virgin Islands",VGB,1961,NULL,NULL,NULL,-64.639968,18.420695,NULL,NULL,NULL,NULL
"Brunei Darussalam",BRN,1961,NULL,3.5572814,NULL,114.727669,4.535277,NULL,NULL,NULL,NULL
Bulgaria,BGR,1961,NULL,3.2699201,NULL,25.485830,42.733883,NULL,NULL,NULL,NULL
"Burkina Faso",BFA,1961,NULL,0.0187299,71.56,-1.561593,12.238333,NULL,NULL,NULL,NULL
Burundi,BDI,1961,NULL,NULL,71.17,29.918886,-3.373056,NULL,NULL,NULL,NULL
"Cabo Verde",CPV,1961,NULL,0.1071590,NULL,-24.013197,16.002082,NULL,NULL,NULL,NULL
Cambodia,KHM,1961,NULL,0.0487021,NULL,104.990963,12.565679,NULL,NULL,NULL,NULL
Cameroon,CMR,1961,NULL,0.0534263,123.51,12.354722,7.369722,NULL,NULL,NULL,NULL
Canada,CAN,1961,11.4525434,10.6278977,2240.43,-106.346771,56.130366,NULL,83.6548998,NULL,4.0539486
"Caribbean small states",CSS,1961,NULL,2.0599813,476.52,NULL,NULL,NULL,NULL,NULL,NULL
"Cayman Islands",CYM,1961,NULL,1.3710120,NULL,-80.566956,19.513469,NULL,NULL,NULL,NULL
"Central African Republic",CAF,1961,NULL,0.0576702,80.69,20.939444,6.611111,NULL,NULL,NULL,NULL
"Central Europe and the Baltics",CEB,1961,0.0915256,5.4607619,NULL,NULL,NULL,NULL,98.3040599,NULL,NULL
Chad,TCD,1961,NULL,0.0167751,109.13,18.732207,15.454166,NULL,NULL,NULL,NULL
"Channel Islands",CHI,1961,NULL,NULL,NULL,NULL,NULL,NULL,NULL,NULL,NULL
Chile,CHL,1961,NULL,1.7430143,NULL,-71.542969,-35.675147,NULL,NULL,NULL,NULL
China,CHN,1961,NULL,0.8360469,75.81,104.195397,35.861660,NULL,NULL,NULL,NULL
Colombia,COL,1961,NULL,1.0995810,274.05,-74.297333,4.570868,NULL,NULL,NULL,NULL
Comoros,COM,1961,NULL,0.0566627,NULL,43.872219,-11.875001,NULL,NULL,NULL,NULL
"Congo, Dem. Rep.",COD,1961,NULL,0.1507818,NULL,21.758664,-4.038333,NULL,NULL,NULL,NULL
"Congo, Rep.",COG,1961,NULL,0.2566256,145.41,15.827659,-0.228021,NULL,NULL,NULL,NULL
"Costa Rica",CRI,1961,NULL,0.3557650,355.00,-83.753428,9.748917,NULL,NULL,NULL,NULL
"Cote d'Ivoire",CIV,1961,NULL,0.1524741,170.24,-5.547080,7.539989,NULL,NULL,NULL,NULL
Croatia,HRV,1961,NULL,NULL,NULL,15.200000,45.100000,NULL,NULL,NULL,NULL
Cuba,CUB,1961,NULL,1.6707500,NULL,-77.781167,21.521757,NULL,NULL,NULL,NULL
Curacao,CUW,1961,NULL,NULL,NULL,NULL,NULL,NULL,NULL,NULL,NULL
Cyprus,CYP,1961,NULL,1.5014035,NULL,33.429859,35.126413,NULL,NULL,NULL,NULL
"Czech Republic",CZE,1961,NULL,NULL,NULL,15.472962,49.817492,NULL,NULL,NULL,NULL
Denmark,DNK,1961,0.0239635,6.8812602,NULL,9.501785,56.263920,NULL,99.1622106,NULL,69.8645598
Djibouti,DJI,1961,NULL,0.4972035,NULL,42.590275,11.825138,NULL,NULL,NULL,NULL
Dominica,DMA,1961,NULL,0.1802379,NULL,-61.370976,15.414999,NULL,NULL,NULL,NULL
"Dominican Republic",DOM,1961,NULL,0.3025078,192.03,-70.162651,18.735693,NULL,NULL,NULL,NULL
"Early-demographic dividend",EAR,1961,1.0026897,0.6284230,NULL,NULL,NULL,NULL,44.1591135,NULL,NULL
"East Asia & Pacific",EAS,1961,5.6195572,1.0221537,143.62,NULL,NULL,NULL,91.1914421,NULL,NULL
"East Asia & Pacific (excluding high income)",EAP,1961,NULL,0.7071399,75.49,NULL,NULL,NULL,NULL,NULL,NULL
"East Asia & Pacific (IDA & IBRD countries)",TEA,1961,NULL,0.6865918,76.33,NULL,NULL,NULL,NULL,NULL,NULL
Ecuador,ECU,1961,NULL,0.3522510,375.22,-78.183406,-1.831239,NULL,NULL,NULL,NULL
"Egypt, Arab Rep.",EGY,1961,NULL,0.6244271,NULL,30.802498,26.820553,NULL,NULL,NULL,NULL
"El Salvador",SLV,1961,NULL,0.2048243,NULL,-88.896530,13.794185,NULL,NULL,NULL,NULL
"Equatorial Guinea",GNQ,1961,NULL,0.0850201,NULL,10.267895,1.650801,NULL,NULL,NULL,NULL
Eritrea,ERI,1961,NULL,NULL,NULL,39.782334,15.179384,NULL,NULL,NULL,NULL
Estonia,EST,1961,NULL,NULL,NULL,25.013607,58.595272,NULL,NULL,NULL,NULL
Eswatini,SWZ,1961,NULL,0.0106802,125.31,NULL,NULL,NULL,NULL,NULL,NULL
Ethiopia,ETH,1961,NULL,0.0150425,NULL,40.489673,9.145000,NULL,NULL,NULL,NULL
"Euro area",EMU,1961,3.6277642,NULL,2888.84,NULL,NULL,NULL,93.9517693,NULL,49.2224386
"Europe & Central Asia",ECS,1961,3.5294308,7.4156042,NULL,NULL,NULL,NULL,93.5754468,NULL,NULL
"Europe & Central Asia (excluding high income)",ECA,1961,1.0026897,9.0070250,NULL,NULL,NULL,NULL,44.1591135,NULL,NULL
"Europe & Central Asia (IDA & IBRD countries)",TEC,1961,0.2377604,8.7084998,NULL,NULL,NULL,NULL,89.6142135,NULL,NULL
"European Union",EUU,1961,3.6394372,4.9328456,NULL,NULL,NULL,NULL,93.6256071,NULL,43.4796597
"Faroe Islands",FRO,1961,NULL,3.2410618,NULL,-6.911806,61.892635,NULL,NULL,NULL,NULL
Fiji,FJI,1961,NULL,0.4142038,287.27,179.414413,-16.578193,NULL,NULL,NULL,NULL
Finland,FIN,1961,6.8656871,3.3488772,1327.43,25.748151,61.924110,NULL,45.1280875,NULL,17.2588348
"Fragile and conflict affected situations",FCS,1961,NULL,0.4743883,146.02,NULL,NULL,NULL,NULL,NULL,NULL
France,FRA,1961,4.1244507,5.9527540,1428.05,2.213749,46.227638,NULL,95.8618831,NULL,40.0342997
"French Polynesia",PYF,1961,NULL,0.7269934,NULL,-149.406843,-17.679742,NULL,NULL,NULL,NULL
Gabon,GAB,1961,NULL,0.3262501,331.44,11.609444,-0.803689,NULL,NULL,NULL,NULL
"Gambia, The",GMB,1961,NULL,0.0590759,NULL,-15.310139,13.443182,NULL,NULL,NULL,NULL
Georgia,GEO,1961,NULL,NULL,NULL,43.356892,42.315407,NULL,NULL,NULL,NULL
Germany,DEU,1961,0.7049032,NULL,NULL,10.451526,51.165691,NULL,99.0409858,NULL,86.7257688
Ghana,GHA,1961,NULL,0.1965146,190.22,-1.023194,7.946527,NULL,NULL,NULL,NULL
Gibraltar,GIB,1961,NULL,2.1563340,NULL,-5.345374,36.137741,NULL,NULL,NULL,NULL
Greece,GRC,1961,1.8449266,1.1697826,590.78,21.824312,39.074208,NULL,98.1995664,NULL,51.5630885
Greenland,GRL,1961,NULL,8.7050445,NULL,-42.604303,71.706936,NULL,NULL,NULL,NULL
Grenada,GRD,1961,NULL,0.2007687,NULL,-61.604171,12.262776,NULL,NULL,NULL,NULL
Guam,GUM,1961,NULL,NULL,NULL,144.793731,13.444304,NULL,NULL,NULL,NULL
Guatemala,GTM,1961,NULL,0.3311753,253.23,-90.230759,15.783471,NULL,NULL,NULL,NULL
Guinea,GIN,1961,NULL,0.1734359,NULL,-9.696645,9.945587,NULL,NULL,NULL,NULL
Guinea-Bissau,GNB,1961,NULL,0.0471069,NULL,-15.180413,11.803749,NULL,NULL,NULL,NULL
Guyana,GUY,1961,NULL,1.2508052,NULL,-58.930180,4.860416,NULL,NULL,NULL,NULL
Haiti,HTI,1961,NULL,0.0753502,68.76,-72.285215,18.971187,NULL,NULL,NULL,NULL
"Heavily indebted poor countries (HIPC)",HPC,1961,NULL,0.1250101,95.90,NULL,NULL,NULL,NULL,NULL,NULL
"High income",HIC,1961,2.8109938,7.7012056,1429.81,NULL,NULL,NULL,94.3892276,NULL,46.2166715
Honduras,HND,1961,NULL,0.3515858,169.91,-86.241905,15.199999,NULL,NULL,NULL,NULL
"Hong Kong SAR, China",HKG,1961,NULL,1.0648780,436.75,114.109497,22.396428,NULL,NULL,NULL,NULL
Hungary,HUN,1961,NULL,4.8833268,NULL,19.503304,47.162494,NULL,NULL,NULL,NULL
"IBRD only",IBD,1961,0.2377604,1.8153139,NULL,NULL,NULL,NULL,89.6142135,NULL,NULL
Iceland,ISL,1961,30.2433092,6.1038491,1418.13,-19.020835,64.963051,NULL,69.7566908,NULL,0.0000000
"IDA & IBRD total",IBT,1961,0.2377604,1.5651418,NULL,NULL,NULL,NULL,89.6142135,NULL,NULL
"IDA blend",IDB,1961,NULL,0.3594206,104.73,NULL,NULL,NULL,NULL,NULL,NULL
"IDA only",IDX,1961,NULL,0.2081967,NULL,NULL,NULL,NULL,NULL,NULL,NULL
"IDA total",IDA,1961,NULL,0.2711559,96.04,NULL,NULL,NULL,NULL,NULL,NULL
India,IND,1961,NULL,0.2837037,85.35,78.962880,20.593684,NULL,NULL,NULL,NULL
Indonesia,IDN,1961,NULL,0.2888475,NULL,113.921327,-0.789275,NULL,NULL,NULL,NULL
"Iran, Islamic Rep.",IRN,1961,NULL,1.6254916,196.93,53.688046,32.427908,NULL,NULL,NULL,NULL
Iraq,IRQ,1961,NULL,1.1665176,NULL,43.679291,33.223191,NULL,NULL,NULL,NULL
Ireland,IRL,1961,1.6091562,4.3779649,739.28,-8.243890,53.412910,NULL,69.4404336,NULL,48.4712597
"Isle of Man",IMN,1961,NULL,NULL,NULL,-4.548056,54.236107,NULL,NULL,NULL,NULL
Israel,ISR,1961,NULL,3.2356870,1436.38,34.851612,31.046051,NULL,NULL,NULL,NULL
Italy,ITA,1961,12.3507553,2.4645558,887.34,12.567380,41.871940,NULL,87.6171445,NULL,7.1541076
Jamaica,JAM,1961,NULL,1.2903940,453.06,-77.297508,18.109581,NULL,NULL,NULL,NULL
Japan,JPN,1961,6.3967594,3.0101331,568.91,138.252924,36.204824,NULL,93.6032406,NULL,28.5389856
Jordan,JOR,1961,NULL,1.0052424,NULL,36.238414,30.585164,NULL,NULL,NULL,NULL
Kazakhstan,KAZ,1961,NULL,NULL,NULL,66.923684,48.019573,NULL,NULL,NULL,NULL
Kenya,KEN,1961,NULL,0.2867000,94.65,37.906193,-0.023559,NULL,NULL,NULL,NULL
Kiribati,KIR,1961,NULL,0.1736516,NULL,-168.734039,-3.370417,NULL,NULL,NULL,NULL
"Korea, Dem. People's Rep.",PRK,1961,NULL,2.2679865,NULL,127.510093,40.339852,NULL,NULL,NULL,NULL
"Korea, Rep.",KOR,1961,NULL,0.5613146,93.83,127.766922,35.907757,NULL,NULL,NULL,NULL
Kosovo,XKX,1961,NULL,NULL,NULL,20.902977,42.602636,NULL,NULL,NULL,NULL
Kuwait,KWT,1961,NULL,33.2076013,NULL,47.481766,29.311660,NULL,NULL,NULL,NULL
"Kyrgyz Republic",KGZ,1961,NULL,NULL,NULL,74.766098,41.204380,NULL,NULL,NULL,NULL
"Lao PDR",LAO,1961,NULL,0.0523775,NULL,102.495496,19.856270,NULL,NULL,NULL,NULL
"Late-demographic dividend",LTE,1961,0.4464807,2.5208199,NULL,NULL,NULL,NULL,96.2009847,NULL,NULL
"Latin America & Caribbean",LCN,1961,NULL,1.3707155,NULL,NULL,NULL,NULL,NULL,NULL,NULL
"Latin America & Caribbean (excluding high income)",LAC,1961,NULL,1.2759251,NULL,NULL,NULL,NULL,NULL,NULL,NULL
"Latin America & the Caribbean (IDA & IBRD countries)",TLA,1961,NULL,1.3003796,NULL,NULL,NULL,NULL,NULL,NULL,NULL
Latvia,LVA,1961,NULL,NULL,NULL,24.603189,56.879635,NULL,NULL,NULL,NULL
"Least developed countries: UN classification",LDC,1961,NULL,0.1410651,NULL,NULL,NULL,NULL,NULL,NULL,NULL
Lebanon,LBN,1961,NULL,1.4395716,NULL,35.862285,33.854721,NULL,NULL,NULL,NULL
Lesotho,LSO,1961,NULL,NULL,41.86,28.233608,-29.609988,NULL,NULL,NULL,NULL
Liberia,LBR,1961,NULL,0.1412479,NULL,-9.429499,6.428055,NULL,NULL,NULL,NULL
Libya,LBY,1961,NULL,0.7979849,NULL,17.228331,26.335100,NULL,NULL,NULL,NULL
Liechtenstein,LIE,1961,NULL,NULL,NULL,9.555373,47.166000,NULL,NULL,NULL,NULL
Lithuania,LTU,1961,NULL,NULL,NULL,23.881275,55.169438,NULL,NULL,NULL,NULL
"Low & middle income",LMY,1961,1.0026897,1.4890903,NULL,NULL,NULL,NULL,44.1591135,NULL,NULL
"Low income",LIC,1961,NULL,0.2918989,NULL,NULL,NULL,NULL,NULL,NULL,NULL
"Lower middle income",LMC,1961,NULL,0.4696184,NULL,NULL,NULL,NULL,NULL,NULL,NULL
Luxembourg,LUX,1961,0.1468698,36.5837776,2222.37,6.129583,49.815273,NULL,99.9123935,NULL,93.5209424
"Macao SAR, China",MAC,1961,NULL,0.4087208,NULL,113.543873,22.198745,NULL,NULL,NULL,NULL
Madagascar,MDG,1961,NULL,0.0680951,133.85,46.869107,-18.766947,NULL,NULL,NULL,NULL
Malawi,MWI,1961,NULL,NULL,46.58,34.301525,-13.254308,NULL,NULL,NULL,NULL
Malaysia,MYS,1961,NULL,0.4752652,225.93,101.975766,4.210484,NULL,NULL,NULL,NULL
Maldives,MDV,1961,NULL,NULL,NULL,73.220680,3.202778,NULL,NULL,NULL,NULL
Mali,MLI,1961,NULL,0.0220477,NULL,-3.996166,17.570692,NULL,NULL,NULL,NULL
Malta,MLT,1961,NULL,0.9019523,NULL,14.375416,35.937496,NULL,NULL,NULL,NULL
"Marshall Islands",MHL,1961,NULL,NULL,NULL,171.184478,7.131474,NULL,NULL,NULL,NULL
Mauritania,MRT,1961,NULL,0.0544447,181.84,-10.940835,21.007890,NULL,NULL,NULL,NULL
Mauritius,MUS,1961,NULL,0.2747192,NULL,57.552152,-20.348404,NULL,NULL,NULL,NULL
Mexico,MEX,1961,NULL,1.6759616,NULL,-102.552784,23.634501,NULL,NULL,NULL,NULL
"Micronesia, Fed. Sts.",FSM,1961,NULL,NULL,NULL,150.550812,7.425554,NULL,NULL,NULL,NULL
"Middle East & North Africa",MEA,1961,NULL,0.9736696,NULL,NULL,NULL,NULL,NULL,NULL,NULL
"Middle East & North Africa (excluding high income)",MNA,1961,NULL,0.8243391,NULL,NULL,NULL,NULL,NULL,NULL,NULL
"Middle East & North Africa (IDA & IBRD countries)",TMN,1961,NULL,0.8188099,NULL,NULL,NULL,NULL,NULL,NULL,NULL
"Middle income",MIC,1961,1.0026897,1.5694797,NULL,NULL,NULL,NULL,44.1591135,NULL,NULL
Moldova,MDA,1961,NULL,NULL,NULL,28.369885,47.411631,NULL,NULL,NULL,NULL
Monaco,MCO,1961,NULL,NULL,NULL,7.412841,43.750298,NULL,NULL,NULL,NULL
Mongolia,MNG,1961,NULL,1.4187405,NULL,103.846656,46.862496,NULL,NULL,NULL,NULL
Montenegro,MNE,1961,NULL,NULL,NULL,19.374390,42.708678,NULL,NULL,NULL,NULL
Morocco,MAR,1961,NULL,0.2971546,158.92,-7.092620,31.791702,NULL,NULL,NULL,NULL
Mozambique,MOZ,1961,NULL,0.3586031,NULL,35.529562,-18.665695,NULL,NULL,NULL,NULL
Myanmar,MMR,1961,NULL,0.1167213,NULL,95.956223,21.913965,NULL,NULL,NULL,NULL
Namibia,NAM,1961,NULL,NULL,NULL,18.490410,-22.957640,NULL,NULL,NULL,NULL
Nauru,NRU,1961,NULL,NULL,NULL,166.931503,-0.522778,NULL,NULL,NULL,NULL
Nepal,NPL,1961,NULL,0.0078574,51.81,84.124008,28.394857,NULL,NULL,NULL,NULL
Netherlands,NLD,1961,0.0000000,6.5203577,1159.39,5.291266,52.132633,NULL,99.9830871,NULL,79.2044939
"New Caledonia",NCL,1961,NULL,10.9287438,NULL,165.618042,-20.904305,NULL,NULL,NULL,NULL
"New Zealand",NZL,1961,22.6724106,4.8631661,2343.29,174.885971,-40.900557,NULL,77.3276129,NULL,13.7083994
Nicaragua,NIC,1961,NULL,0.3066234,131.45,-85.207229,12.865416,NULL,NULL,NULL,NULL
Niger,NER,1961,NULL,0.0157774,139.34,8.081666,17.607789,NULL,NULL,NULL,NULL
Nigeria,NGA,1961,NULL,0.0893195,96.98,8.675277,9.081999,NULL,NULL,NULL,NULL
"North America",NAC,1961,2.0524533,15.2259118,2991.59,NULL,NULL,NULL,94.7218400,NULL,47.7158685
"North Macedonia",MKD,1961,NULL,NULL,NULL,NULL,NULL,NULL,NULL,NULL,NULL
"Northern Mariana Islands",MNP,1961,NULL,NULL,NULL,145.384690,17.330830,NULL,NULL,NULL,NULL
Norway,NOR,1961,41.4599450,3.6986944,1560.32,8.468946,60.472024,NULL,58.6519427,NULL,0.0000000
"Not classified",INX,1961,NULL,NULL,NULL,NULL,NULL,NULL,NULL,NULL,NULL
"OECD members",OED,1961,2.8005601,7.2327710,1349.30,NULL,NULL,NULL,94.0957195,NULL,46.3611768
Oman,OMN,1961,NULL,NULL,NULL,55.923255,21.512583,NULL,NULL,NULL,NULL
"Other small states",OSS,1961,30.2433092,0.9956300,NULL,NULL,NULL,NULL,69.7566908,NULL,NULL
"Pacific island small states",PSS,1961,NULL,0.3908245,NULL,NULL,NULL,NULL,NULL,NULL,NULL
Pakistan,PAK,1961,NULL,0.3181792,89.41,69.345116,30.375321,NULL,NULL,NULL,NULL
Palau,PLW,1961,NULL,5.1102927,NULL,134.582520,7.514980,NULL,NULL,NULL,NULL
Panama,PAN,1961,NULL,0.9457185,NULL,-80.782127,8.537981,NULL,NULL,NULL,NULL
"Papua New Guinea",PNG,1961,NULL,0.0878017,106.59,143.955550,-6.314993,NULL,NULL,NULL,NULL
Paraguay,PRY,1961,NULL,0.1857372,NULL,-58.443832,-23.442503,NULL,NULL,NULL,NULL
Peru,PER,1961,NULL,0.8273605,277.57,-75.015152,-9.189967,NULL,NULL,NULL,NULL
Philippines,PHL,1961,NULL,0.3211876,NULL,121.774017,12.879721,NULL,NULL,NULL,NULL
Poland,POL,1961,0.0915256,6.9228026,NULL,19.145136,51.919438,NULL,98.3040599,NULL,96.5570720
Portugal,PRT,1961,9.0588612,1.0180503,382.73,-8.224454,39.399872,NULL,69.2953627,NULL,1.8945634
"Post-demographic dividend",PST,1961,2.8910422,7.9195923,1408.63,NULL,NULL,NULL,94.3270809,NULL,43.8536397
"Pre-demographic dividend",PRE,1961,NULL,0.1632564,NULL,NULL,NULL,NULL,NULL,NULL,NULL
"Puerto Rico",PRI,1961,NULL,NULL,777.22,-66.590149,18.220833,NULL,NULL,NULL,NULL
Qatar,QAT,1961,NULL,3.1374181,NULL,51.183884,25.354826,NULL,NULL,NULL,NULL
Romania,ROU,1961,NULL,3.0058916,NULL,24.966760,45.943161,NULL,NULL,NULL,NULL
"Russian Federation",RUS,1961,NULL,12.3225126,NULL,105.318756,61.524010,NULL,NULL,NULL,NULL
Rwanda,RWA,1961,NULL,0.0464745,40.69,29.873888,-1.940278,NULL,NULL,NULL,NULL
Samoa,WSM,1961,NULL,0.1635418,NULL,-172.104629,-13.759029,NULL,NULL,NULL,NULL
"San Marino",SMR,1961,NULL,NULL,NULL,12.457777,43.942360,NULL,NULL,NULL,NULL
"Sao Tome and Principe",STP,1961,NULL,0.1703020,NULL,6.613081,0.186360,NULL,NULL,NULL,NULL
"Saudi Arabia",SAU,1961,NULL,0.8465948,NULL,45.079162,23.885942,NULL,NULL,NULL,NULL
Senegal,SEN,1961,NULL,0.2470424,321.36,-14.452362,14.497401,NULL,NULL,NULL,NULL
Serbia,SRB,1961,NULL,NULL,NULL,21.005859,44.016521,NULL,NULL,NULL,NULL
Seychelles,SYC,1961,NULL,NULL,270.28,55.491977,-4.679574,NULL,NULL,NULL,NULL
"Sierra Leone",SLE,1961,NULL,0.1231494,139.36,-11.779889,8.460555,NULL,NULL,NULL,NULL
Singapore,SGP,1961,NULL,1.2299442,449.15,103.819836,1.352083,NULL,NULL,NULL,NULL
"Sint Maarten (Dutch part)",SXM,1961,NULL,NULL,NULL,NULL,NULL,NULL,NULL,NULL,NULL
"Slovak Republic",SVK,1961,NULL,NULL,NULL,19.699024,48.669026,NULL,NULL,NULL,NULL
Slovenia,SVN,1961,NULL,NULL,NULL,14.995463,46.151241,NULL,NULL,NULL,NULL
"Small states",SST,1961,30.2433092,1.4860978,NULL,NULL,NULL,NULL,69.7566908,NULL,NULL
"Solomon Islands",SLB,1961,NULL,0.1208387,NULL,160.156194,-9.645710,NULL,NULL,NULL,NULL
Somalia,SOM,1961,NULL,0.0312737,68.11,46.199616,5.152149,NULL,NULL,NULL,NULL
"South Africa",ZAF,1961,NULL,5.8326209,454.96,22.937506,-30.559482,NULL,NULL,NULL,NULL
"South Asia",SAS,1961,NULL,0.2780266,85.67,NULL,NULL,NULL,NULL,NULL,NULL
"South Asia (IDA & IBRD)",TSA,1961,NULL,0.2780266,85.67,NULL,NULL,NULL,NULL,NULL,NULL
"South Sudan",SSD,1961,NULL,NULL,NULL,NULL,NULL,NULL,NULL,NULL,NULL
Spain,ESP,1961,8.0178836,1.7462217,450.05,-3.749220,40.463667,NULL,92.1045480,NULL,18.0716544
"Sri Lanka",LKA,1961,NULL,0.2310089,NULL,80.771797,7.873054,NULL,NULL,NULL,NULL
"St. Kitts and Nevis",KNA,1961,NULL,0.4297601,243.83,-62.782998,17.357822,NULL,NULL,NULL,NULL
"St. Lucia",LCA,1961,NULL,0.2021098,NULL,-60.978893,13.909444,NULL,NULL,NULL,NULL
"St. Martin (French part)",MAF,1961,NULL,NULL,NULL,NULL,NULL,NULL,NULL,NULL,NULL
"St. Vincent and the Grenadines",VCT,1961,NULL,0.1338842,170.38,-61.287228,12.984305,NULL,NULL,NULL,NULL
"Sub-Saharan Africa",SSF,1961,NULL,0.5682231,121.04,NULL,NULL,NULL,NULL,NULL,NULL
"Sub-Saharan Africa (excluding high income)",SSA,1961,NULL,0.5683045,121.02,NULL,NULL,NULL,NULL,NULL,NULL
"Sub-Saharan Africa (IDA & IBRD countries)",TSS,1961,NULL,0.5682231,121.04,NULL,NULL,NULL,NULL,NULL,NULL
Sudan,SDN,1961,NULL,0.1784066,133.08,30.217636,12.862807,NULL,NULL,NULL,NULL
Suriname,SUR,1961,NULL,1.4498822,363.96,-56.027783,3.919305,NULL,NULL,NULL,NULL
Sweden,SWE,1961,15.2500468,6.4962483,2288.92,18.643501,60.128161,NULL,72.7534815,NULL,0.1585610
Switzerland,CHE,1961,23.5017172,3.7518250,1971.32,8.227512,46.818188,NULL,74.7840983,NULL,0.0000000
"Syrian Arab Republic",SYR,1961,NULL,0.6492337,200.18,38.996815,34.802075,NULL,NULL,NULL,NULL
Tajikistan,TJK,1961,NULL,NULL,NULL,71.276093,38.861034,NULL,NULL,NULL,NULL
Tanzania,TZA,1961,NULL,0.0680472,NULL,34.888822,-6.369028,NULL,NULL,NULL,NULL
Thailand,THA,1961,NULL,0.1469441,107.50,100.992541,15.870032,NULL,NULL,NULL,NULL
Timor-Leste,TLS,1961,NULL,NULL,NULL,125.727539,-8.874217,NULL,NULL,NULL,NULL
Togo,TGO,1961,NULL,0.0573857,79.12,0.824782,8.619543,NULL,NULL,NULL,NULL
Tonga,TON,1961,NULL,0.1726432,NULL,-175.198242,-21.178986,NULL,NULL,NULL,NULL
"Trinidad and Tobago",TTO,1961,NULL,5.3214738,676.40,-61.222503,10.691803,NULL,NULL,NULL,NULL
Tunisia,TUN,1961,NULL,0.4170446,NULL,9.537499,33.886917,NULL,NULL,NULL,NULL
Turkey,TUR,1961,1.0026897,0.6168793,NULL,35.243322,38.963745,NULL,44.1591135,NULL,48.7213550
Turkmenistan,TKM,1961,NULL,NULL,NULL,59.556278,38.969719,NULL,NULL,NULL,NULL
"Turks and Caicos Islands",TCA,1961,NULL,NULL,NULL,-71.797928,21.694025,NULL,NULL,NULL,NULL
Tuvalu,TUV,1961,NULL,NULL,NULL,177.649330,-7.109535,NULL,NULL,NULL,NULL
Uganda,UGA,1961,NULL,0.0582828,63.22,32.290275,1.373333,NULL,NULL,NULL,NULL
Ukraine,UKR,1961,NULL,NULL,NULL,31.165580,48.379433,NULL,NULL,NULL,NULL
"United Arab Emirates",ARE,1961,NULL,0.1091358,NULL,53.847818,23.424076,NULL,NULL,NULL,NULL
"United Kingdom",GBR,1961,0.6315694,11.1541389,1472.39,-3.435973,55.378051,NULL,99.3683758,NULL,80.2072826
"United States",USA,1961,1.3347577,15.6812555,3066.56,-95.712891,37.090240,NULL,95.5667993,NULL,53.7305350
"Upper middle income",UMC,1961,1.0026897,2.4367388,NULL,NULL,NULL,NULL,44.1591135,NULL,NULL
Uruguay,URY,1961,NULL,1.6027285,NULL,-55.765835,-32.522779,NULL,NULL,NULL,NULL
Uzbekistan,UZB,1961,NULL,NULL,NULL,64.585262,41.377491,NULL,NULL,NULL,NULL
Vanuatu,VUT,1961,NULL,NULL,NULL,166.959158,-15.376706,NULL,NULL,NULL,NULL
"Venezuela, RB",VEN,1961,NULL,6.1531913,970.36,-66.589730,6.423750,NULL,NULL,NULL,NULL
Vietnam,VNM,1961,NULL,0.1830989,NULL,108.277199,14.058324,NULL,NULL,NULL,NULL
"Virgin Islands (U.S.)",VIR,1961,NULL,NULL,NULL,-64.896335,18.335765,NULL,NULL,NULL,NULL
"West Bank and Gaza",PSE,1961,NULL,NULL,NULL,34.308825,31.354676,NULL,NULL,NULL,NULL
World,WLD,1961,2.8005601,3.0680904,459.59,NULL,NULL,NULL,94.0957195,NULL,NULL
"Yemen, Rep.",YEM,1961,NULL,0.0135990,NULL,48.516388,15.552727,NULL,NULL,NULL,NULL
Zambia,ZMB,1961,NULL,NULL,220.04,27.849332,-13.133897,NULL,NULL,NULL,NULL
Zimbabwe,ZWE,1961,NULL,NULL,280.83,29.154857,-19.015438,NULL,NULL,NULL,NULL
Afghanistan,AFG,1962,NULL,0.0737208,58.46,67.709953,33.939110,NULL,NULL,NULL,NULL
"Africa Eastern and Southern",AFE,1962,NULL,0.9308159,134.69,NULL,NULL,NULL,NULL,NULL,NULL
"Africa Western and Central",AFW,1962,NULL,0.0966124,118.87,NULL,NULL,NULL,NULL,NULL,NULL
Albania,ALB,1962,NULL,1.4399560,NULL,20.168331,41.153332,NULL,NULL,NULL,NULL
Algeria,DZA,1962,NULL,0.4878886,172.24,1.659626,28.033886,NULL,NULL,NULL,NULL
"American Samoa",ASM,1962,NULL,NULL,NULL,-170.132217,-14.270972,NULL,NULL,NULL,NULL
Andorra,AND,1962,NULL,NULL,NULL,1.601554,42.546245,NULL,NULL,NULL,NULL
Angola,AGO,1962,NULL,0.2105330,NULL,17.873887,-11.202692,NULL,NULL,NULL,NULL
"Antigua and Barbuda",ATG,1962,NULL,1.8384573,NULL,-61.796428,17.060816,NULL,NULL,NULL,NULL
"Arab World",ARB,1962,NULL,0.7271170,NULL,NULL,NULL,NULL,NULL,NULL,NULL
Argentina,ARG,1962,NULL,2.5384472,NULL,-63.616672,-38.416097,NULL,NULL,NULL,NULL
Armenia,ARM,1962,NULL,NULL,NULL,45.038189,40.069099,NULL,NULL,NULL,NULL
Aruba,ABW,1962,NULL,226.0818900,NULL,-69.968338,12.521110,NULL,NULL,NULL,NULL
Australia,AUS,1962,1.2406431,8.8356880,1851.84,133.775136,-25.274398,NULL,87.0699343,NULL,75.5753799
Austria,AUT,1962,8.3374739,4.7553617,1087.83,14.550072,47.516231,NULL,87.4039052,NULL,16.6647359
Azerbaijan,AZE,1962,NULL,NULL,NULL,47.576927,40.143105,NULL,NULL,NULL,NULL
"Bahamas, The",BHS,1962,NULL,5.9959865,1752.84,-77.396280,25.034280,NULL,NULL,NULL,NULL
Bahrain,BHR,1962,NULL,9.1918563,NULL,50.637772,25.930414,NULL,NULL,NULL,NULL
Bangladesh,BGD,1962,NULL,0.3173356,100.12,90.356331,23.684994,NULL,NULL,NULL,NULL
Barbados,BRB,1962,NULL,1.1192229,NULL,-59.543198,13.193887,NULL,NULL,NULL,NULL
Belarus,BLR,1962,NULL,NULL,NULL,27.953389,53.709807,NULL,NULL,NULL,NULL
Belgium,BEL,1962,0.0581234,10.6411896,1438.52,4.469936,50.503887,NULL,NULL,NULL,83.5565688
Belize,BLZ,1962,NULL,0.7153873,327.10,-88.497650,17.189877,NULL,NULL,NULL,NULL
Benin,BEN,1962,NULL,0.0542088,94.46,2.315834,9.307690,NULL,NULL,NULL,NULL
Bermuda,BMU,1962,NULL,3.3837124,2020.39,-64.757370,32.321384,NULL,NULL,NULL,NULL
Bhutan,BTN,1962,NULL,NULL,NULL,90.433601,27.514162,NULL,NULL,NULL,NULL
Bolivia,BOL,1962,NULL,0.2892719,116.92,-63.588653,-16.290154,NULL,NULL,NULL,NULL
"Bosnia and Herzegovina",BIH,1962,NULL,NULL,NULL,17.679076,43.915886,NULL,NULL,NULL,NULL
Botswana,BWA,1962,NULL,NULL,68.05,24.684866,-22.328474,NULL,NULL,NULL,NULL
Brazil,BRA,1962,NULL,0.7017755,NULL,-51.925280,-14.235004,NULL,NULL,NULL,NULL
"British Virgin Islands",VGB,1962,NULL,0.4407982,NULL,-64.639968,18.420695,NULL,NULL,NULL,NULL
"Brunei Darussalam",BRN,1962,NULL,4.1389187,NULL,114.727669,4.535277,NULL,NULL,NULL,NULL
Bulgaria,BGR,1962,NULL,3.8358918,NULL,25.485830,42.733883,NULL,NULL,NULL,NULL
"Burkina Faso",BFA,1962,NULL,0.0170031,76.52,-1.561593,12.238333,NULL,NULL,NULL,NULL
Burundi,BDI,1962,NULL,0.0151356,73.44,29.918886,-3.373056,NULL,NULL,NULL,NULL
"Cabo Verde",CPV,1962,NULL,0.0872509,NULL,-24.013197,16.002082,NULL,NULL,NULL,NULL
Cambodia,KHM,1962,NULL,0.0510959,109.48,104.990963,12.565679,NULL,NULL,NULL,NULL
Cameroon,CMR,1962,NULL,0.0536595,128.59,12.354722,7.369722,NULL,NULL,NULL,NULL
Canada,CAN,1962,10.8947140,11.1306275,2268.59,-106.346771,56.130366,NULL,84.3332162,NULL,7.0989206
"Caribbean small states",CSS,1962,NULL,2.7037412,494.74,NULL,NULL,NULL,NULL,NULL,NULL
"Cayman Islands",CYM,1962,NULL,1.3513082,NULL,-80.566956,19.513469,NULL,NULL,NULL,NULL
"Central African Republic",CAF,1962,NULL,0.0472580,80.21,20.939444,6.611111,NULL,NULL,NULL,NULL
"Central Europe and the Baltics",CEB,1962,0.1082255,5.7967905,NULL,NULL,NULL,NULL,98.3962171,NULL,NULL
Chad,TCD,1962,NULL,0.0270218,114.58,18.732207,15.454166,NULL,NULL,NULL,NULL
"Channel Islands",CHI,1962,NULL,NULL,NULL,NULL,NULL,NULL,NULL,NULL,NULL
Chile,CHL,1962,NULL,1.9730322,638.95,-71.542969,-35.675147,NULL,NULL,NULL,NULL
China,CHN,1962,NULL,0.6614282,70.91,104.195397,35.861660,NULL,NULL,NULL,NULL
Colombia,COL,1962,NULL,1.1374555,289.92,-74.297333,4.570868,NULL,NULL,NULL,NULL
Comoros,COM,1962,NULL,0.0557854,NULL,43.872219,-11.875001,NULL,NULL,NULL,NULL
"Congo, Dem. Rep.",COD,1962,NULL,0.1355592,NULL,21.758664,-4.038333,NULL,NULL,NULL,NULL
"Congo, Rep.",COG,1962,NULL,0.2229209,155.74,15.827659,-0.228021,NULL,NULL,NULL,NULL
"Costa Rica",CRI,1962,NULL,0.3837524,334.31,-83.753428,9.748917,NULL,NULL,NULL,NULL
"Cote d'Ivoire",CIV,1962,NULL,0.1555974,171.13,-5.547080,7.539989,NULL,NULL,NULL,NULL
Croatia,HRV,1962,NULL,NULL,NULL,15.200000,45.100000,NULL,NULL,NULL,NULL
Cuba,CUB,1962,NULL,1.9010158,NULL,-77.781167,21.521757,NULL,NULL,NULL,NULL
Curacao,CUW,1962,NULL,NULL,NULL,NULL,NULL,NULL,NULL,NULL,NULL
Cyprus,CYP,1962,NULL,1.5678644,NULL,33.429859,35.126413,NULL,NULL,NULL,NULL
"Czech Republic",CZE,1962,NULL,NULL,NULL,15.472962,49.817492,NULL,NULL,NULL,NULL
Denmark,DNK,1962,0.0209510,7.9451074,NULL,9.501785,56.263920,NULL,99.2578421,NULL,72.3004695
Djibouti,DJI,1962,NULL,0.5060455,NULL,42.590275,11.825138,NULL,NULL,NULL,NULL
Dominica,DMA,1962,NULL,0.1774985,NULL,-61.370976,15.414999,NULL,NULL,NULL,NULL
"Dominican Republic",DOM,1962,NULL,0.3530550,234.05,-70.162651,18.735693,NULL,NULL,NULL,NULL
"Early-demographic dividend",EAR,1962,0.8154737,0.6487224,140.67,NULL,NULL,NULL,49.0496657,NULL,NULL
"East Asia & Pacific",EAS,1962,5.2531178,0.9251175,148.74,NULL,NULL,NULL,91.7895090,NULL,NULL
"East Asia & Pacific (excluding high income)",EAP,1962,NULL,0.5813808,71.20,NULL,NULL,NULL,NULL,NULL,NULL
"East Asia & Pacific (IDA & IBRD countries)",TEA,1962,NULL,0.5548230,72.00,NULL,NULL,NULL,NULL,NULL,NULL
Ecuador,ECU,1962,NULL,0.3255866,315.69,-78.183406,-1.831239,NULL,NULL,NULL,NULL
"Egypt, Arab Rep.",EGY,1962,NULL,0.6614679,NULL,30.802498,26.820553,NULL,NULL,NULL,NULL
"El Salvador",SLV,1962,NULL,0.2214321,NULL,-88.896530,13.794185,NULL,NULL,NULL,NULL
"Equatorial Guinea",GNQ,1962,NULL,0.0839070,34.79,10.267895,1.650801,NULL,NULL,NULL,NULL
Eritrea,ERI,1962,NULL,NULL,NULL,39.782334,15.179384,NULL,NULL,NULL,NULL
Estonia,EST,1962,NULL,NULL,NULL,25.013607,58.595272,NULL,NULL,NULL,NULL
Eswatini,SWZ,1962,NULL,NULL,131.16,NULL,NULL,NULL,NULL,NULL,NULL
Ethiopia,ETH,1962,NULL,0.0170548,NULL,40.489673,9.145000,NULL,NULL,NULL,NULL
"Euro area",EMU,1962,3.2922499,NULL,3179.92,NULL,NULL,NULL,94.1451004,NULL,50.1870792
"Europe & Central Asia",ECS,1962,3.3873024,7.7382289,NULL,NULL,NULL,NULL,93.6708881,NULL,NULL
"Europe & Central Asia (excluding high income)",ECA,1962,0.8154737,9.3778898,NULL,NULL,NULL,NULL,49.0496657,NULL,NULL
"Europe & Central Asia (IDA & IBRD countries)",TEC,1962,0.2250375,9.0595627,NULL,NULL,NULL,NULL,90.2459390,NULL,NULL
"European Union",EUU,1962,3.3646740,5.2990497,NULL,NULL,NULL,NULL,93.8137719,NULL,44.3424959
"Faroe Islands",FRO,1962,NULL,3.3035106,NULL,-6.911806,61.892635,NULL,NULL,NULL,NULL
Fiji,FJI,1962,NULL,0.5478677,291.47,179.414413,-16.578193,NULL,NULL,NULL,NULL
Finland,FIN,1962,7.9208962,3.7425674,1411.70,25.748151,61.924110,NULL,47.5248495,NULL,11.5272039
"Fragile and conflict affected situations",FCS,1962,NULL,0.4784859,155.53,NULL,NULL,NULL,NULL,NULL,NULL
France,FRA,1962,3.6361235,6.2354084,1578.28,2.213749,46.227638,NULL,96.4323655,NULL,44.7770613
"French Polynesia",PYF,1962,NULL,0.5698728,NULL,-149.406843,-17.679742,NULL,NULL,NULL,NULL
Gabon,GAB,1962,NULL,0.1721310,357.52,11.609444,-0.803689,NULL,NULL,NULL,NULL
"Gambia, The",GMB,1962,NULL,0.0675703,NULL,-15.310139,13.443182,NULL,NULL,NULL,NULL
Georgia,GEO,1962,NULL,NULL,NULL,43.356892,42.315407,NULL,NULL,NULL,NULL
Germany,DEU,1962,0.6401895,NULL,NULL,10.451526,51.165691,NULL,99.1926689,NULL,86.9091068
Ghana,GHA,1962,NULL,0.2027438,195.49,-1.023194,7.946527,NULL,NULL,NULL,NULL
Gibraltar,GIB,1962,NULL,2.2629284,NULL,-5.345374,36.137741,NULL,NULL,NULL,NULL
Greece,GRC,1962,1.8783279,1.2032012,617.06,21.824312,39.074208,NULL,98.1245797,NULL,42.4396874
Greenland,GRL,1962,NULL,7.5435429,NULL,-42.604303,71.706936,NULL,NULL,NULL,NULL
Grenada,GRD,1962,NULL,0.2775597,NULL,-61.604171,12.262776,NULL,NULL,NULL,NULL
Guam,GUM,1962,NULL,NULL,NULL,144.793731,13.444304,NULL,NULL,NULL,NULL
Guatemala,GTM,1962,NULL,0.3157305,261.18,-90.230759,15.783471,NULL,NULL,NULL,NULL
Guinea,GIN,1962,NULL,0.1827698,NULL,-9.696645,9.945587,NULL,NULL,NULL,NULL
Guinea-Bissau,GNB,1962,NULL,0.0641413,NULL,-15.180413,11.803749,NULL,NULL,NULL,NULL
Guyana,GUY,1962,NULL,1.1189356,321.55,-58.930180,4.860416,NULL,NULL,NULL,NULL
Haiti,HTI,1962,NULL,0.0757273,70.14,-72.285215,18.971187,NULL,NULL,NULL,NULL
"Heavily indebted poor countries (HIPC)",HPC,1962,NULL,0.1222721,98.73,NULL,NULL,NULL,NULL,NULL,NULL
"High income",HIC,1962,2.7763842,7.9572061,1524.94,NULL,NULL,NULL,94.4963562,NULL,46.9042782
Honduras,HND,1962,NULL,0.3249125,179.88,-86.241905,15.199999,NULL,NULL,NULL,NULL
"Hong Kong SAR, China",HKG,1962,NULL,1.1150112,487.82,114.109497,22.396428,NULL,NULL,NULL,NULL
Hungary,HUN,1962,NULL,5.0250380,NULL,19.503304,47.162494,NULL,NULL,NULL,NULL
"IBRD only",IBD,1962,0.2250375,1.7994922,NULL,NULL,NULL,NULL,90.2459390,NULL,NULL
Iceland,ISL,1962,30.7826433,6.5748555,1562.23,-19.020835,64.963051,NULL,69.2171756,NULL,0.0000000
"IDA & IBRD total",IBT,1962,0.2250375,1.5512657,NULL,NULL,NULL,NULL,90.2459390,NULL,NULL
"IDA blend",IDB,1962,NULL,0.3789672,109.32,NULL,NULL,NULL,NULL,NULL,NULL
"IDA only",IDX,1962,NULL,0.2138192,NULL,NULL,NULL,NULL,NULL,NULL,NULL
"IDA total",IDA,1962,NULL,0.2812707,100.02,NULL,NULL,NULL,NULL,NULL,NULL
India,IND,1962,NULL,0.3058510,89.88,78.962880,20.593684,NULL,NULL,NULL,NULL
Indonesia,IDN,1962,NULL,0.2485534,NULL,113.921327,-0.789275,NULL,NULL,NULL,NULL
"Iran, Islamic Rep.",IRN,1962,NULL,1.6237515,203.44,53.688046,32.427908,NULL,NULL,NULL,NULL
Iraq,IRQ,1962,NULL,1.1769046,254.70,43.679291,33.223191,NULL,NULL,NULL,NULL
Ireland,IRL,1962,1.4145259,4.6263380,797.01,-8.243890,53.412910,NULL,70.0859238,NULL,45.1565378
"Isle of Man",IMN,1962,NULL,NULL,NULL,-4.548056,54.236107,NULL,NULL,NULL,NULL
Israel,ISR,1962,NULL,3.4638997,1094.64,34.851612,31.046051,NULL,NULL,NULL,NULL
Italy,ITA,1962,10.4760258,2.8784964,990.26,12.567380,41.871940,NULL,89.3109802,NULL,7.9090444
Jamaica,JAM,1962,NULL,1.2642565,463.89,-77.297508,18.109581,NULL,NULL,NULL,NULL
Japan,JPN,1962,5.5788663,3.0887116,639.64,138.252924,36.204824,NULL,94.4211337,NULL,33.0484330
Jordan,JOR,1962,NULL,1.0377135,NULL,36.238414,30.585164,NULL,NULL,NULL,NULL
Kazakhstan,KAZ,1962,NULL,NULL,NULL,66.923684,48.019573,NULL,NULL,NULL,NULL
Kenya,KEN,1962,NULL,0.3036396,100.39,37.906193,-0.023559,NULL,NULL,NULL,NULL
Kiribati,KIR,1962,NULL,0.2541645,NULL,-168.734039,-3.370417,NULL,NULL,NULL,NULL
"Korea, Dem. People's Rep.",PRK,1962,NULL,2.5878399,NULL,127.510093,40.339852,NULL,NULL,NULL,NULL
"Korea, Rep.",KOR,1962,NULL,0.6517137,106.15,127.766922,35.907757,NULL,NULL,NULL,NULL
Kosovo,XKX,1962,NULL,NULL,NULL,20.902977,42.602636,NULL,NULL,NULL,NULL
Kuwait,KWT,1962,NULL,42.3609558,NULL,47.481766,29.311660,NULL,NULL,NULL,NULL
"Kyrgyz Republic",KGZ,1962,NULL,NULL,NULL,74.766098,41.204380,NULL,NULL,NULL,NULL
"Lao PDR",LAO,1962,NULL,0.0594348,NULL,102.495496,19.856270,NULL,NULL,NULL,NULL
"Late-demographic dividend",LTE,1962,0.4521616,2.4914794,NULL,NULL,NULL,NULL,96.3870101,NULL,NULL
"Latin America & Caribbean",LCN,1962,NULL,1.4165897,NULL,NULL,NULL,NULL,NULL,NULL,NULL
"Latin America & Caribbean (excluding high income)",LAC,1962,NULL,1.2994320,NULL,NULL,NULL,NULL,NULL,NULL,NULL
"Latin America & the Caribbean (IDA & IBRD countries)",TLA,1962,NULL,1.3351990,NULL,NULL,NULL,NULL,NULL,NULL,NULL
Latvia,LVA,1962,NULL,NULL,NULL,24.603189,56.879635,NULL,NULL,NULL,NULL
"Least developed countries: UN classification",LDC,1962,NULL,0.1487202,NULL,NULL,NULL,NULL,NULL,NULL,NULL
Lebanon,LBN,1962,NULL,1.4837170,NULL,35.862285,33.854721,NULL,NULL,NULL,NULL
Lesotho,LSO,1962,NULL,NULL,48.16,28.233608,-29.609988,NULL,NULL,NULL,NULL
Liberia,LBR,1962,NULL,0.2168798,NULL,-9.429499,6.428055,NULL,NULL,NULL,NULL
Libya,LBY,1962,NULL,0.6762651,NULL,17.228331,26.335100,NULL,NULL,NULL,NULL
Liechtenstein,LIE,1962,NULL,NULL,NULL,9.555373,47.166000,NULL,NULL,NULL,NULL
Lithuania,LTU,1962,NULL,NULL,NULL,23.881275,55.169438,NULL,NULL,NULL,NULL
"Low & middle income",LMY,1962,0.8154737,1.4725909,137.55,NULL,NULL,NULL,49.0496657,NULL,NULL
"Low income",LIC,1962,NULL,0.3157894,NULL,NULL,NULL,NULL,NULL,NULL,NULL
"Lower middle income",LMC,1962,NULL,0.4907265,92.63,NULL,NULL,NULL,NULL,NULL,NULL
Luxembourg,LUX,1962,0.1158522,36.0126267,2311.80,6.129583,49.815273,NULL,99.4876760,NULL,91.2328767
"Macao SAR, China",MAC,1962,NULL,0.5411379,NULL,113.543873,22.198745,NULL,NULL,NULL,NULL
Madagascar,MDG,1962,NULL,0.0739909,138.12,46.869107,-18.766947,NULL,NULL,NULL,NULL
Malawi,MWI,1962,NULL,NULL,47.70,34.301525,-13.254308,NULL,NULL,NULL,NULL
Malaysia,MYS,1962,NULL,0.4686929,230.26,101.975766,4.210484,NULL,NULL,NULL,NULL
Maldives,MDV,1962,NULL,NULL,NULL,73.220680,3.202778,NULL,NULL,NULL,NULL
Mali,MLI,1962,NULL,0.0258942,NULL,-3.996166,17.570692,NULL,NULL,NULL,NULL
Malta,MLT,1962,NULL,1.0189256,NULL,14.375416,35.937496,NULL,NULL,NULL,NULL
"Marshall Islands",MHL,1962,NULL,NULL,NULL,171.184478,7.131474,NULL,NULL,NULL,NULL
Mauritania,MRT,1962,NULL,0.0691357,182.18,-10.940835,21.007890,NULL,NULL,NULL,NULL
Mauritius,MUS,1962,NULL,0.3612813,NULL,57.552152,-20.348404,NULL,NULL,NULL,NULL
Mexico,MEX,1962,NULL,1.5874851,378.15,-102.552784,23.634501,NULL,NULL,NULL,NULL
"Micronesia, Fed. Sts.",FSM,1962,NULL,NULL,NULL,150.550812,7.425554,NULL,NULL,NULL,NULL
"Middle East & North Africa",MEA,1962,NULL,1.0348840,NULL,NULL,NULL,NULL,NULL,NULL,NULL
"Middle East & North Africa (excluding high income)",MNA,1962,NULL,0.8217120,NULL,NULL,NULL,NULL,NULL,NULL,NULL
"Middle East & North Africa (IDA & IBRD countries)",TMN,1962,NULL,0.8162004,NULL,NULL,NULL,NULL,NULL,NULL,NULL
"Middle income",MIC,1962,0.8154737,1.5503312,141.41,NULL,NULL,NULL,49.0496657,NULL,NULL
Moldova,MDA,1962,NULL,NULL,NULL,28.369885,47.411631,NULL,NULL,NULL,NULL
Monaco,MCO,1962,NULL,NULL,NULL,7.412841,43.750298,NULL,NULL,NULL,NULL
Mongolia,MNG,1962,NULL,1.9507499,NULL,103.846656,46.862496,NULL,NULL,NULL,NULL
Montenegro,MNE,1962,NULL,NULL,NULL,19.374390,42.708678,NULL,NULL,NULL,NULL
Morocco,MAR,1962,NULL,0.2352276,181.18,-7.092620,31.791702,NULL,NULL,NULL,NULL
Mozambique,MOZ,1962,NULL,0.2647439,NULL,35.529562,-18.665695,NULL,NULL,NULL,NULL
Myanmar,MMR,1962,NULL,0.1269850,NULL,95.956223,21.913965,NULL,NULL,NULL,NULL
Namibia,NAM,1962,NULL,NULL,NULL,18.490410,-22.957640,NULL,NULL,NULL,NULL
Nauru,NRU,1962,NULL,NULL,NULL,166.931503,-0.522778,NULL,NULL,NULL,NULL
Nepal,NPL,1962,NULL,0.0084354,55.03,84.124008,28.394857,NULL,NULL,NULL,NULL
Netherlands,NLD,1962,0.0000000,7.0608538,1240.68,5.291266,52.132633,NULL,NULL,NULL,76.3334199
"New Caledonia",NCL,1962,NULL,6.7711990,NULL,165.618042,-20.904305,NULL,NULL,NULL,NULL
"New Zealand",NZL,1962,28.9637903,4.5165266,2448.63,174.885971,-40.900557,NULL,71.0361872,NULL,5.5363748
Nicaragua,NIC,1962,NULL,0.3497144,140.56,-85.207229,12.865416,NULL,NULL,NULL,NULL
Niger,NER,1962,NULL,0.0183952,148.19,8.081666,17.607789,NULL,NULL,NULL,NULL
Nigeria,NGA,1962,NULL,0.0888879,104.39,8.675277,9.081999,NULL,NULL,NULL,NULL
"North America",NAC,1962,2.1061188,15.5725723,3155.10,NULL,NULL,NULL,94.8003376,NULL,47.8481297
"North Macedonia",MKD,1962,NULL,NULL,NULL,NULL,NULL,NULL,NULL,NULL,NULL
"Northern Mariana Islands",MNP,1962,NULL,NULL,NULL,145.384690,17.330830,NULL,NULL,NULL,NULL
Norway,NOR,1962,43.7655429,3.8686261,1667.25,8.468946,60.472024,NULL,56.5696002,NULL,0.0000000
"Not classified",INX,1962,NULL,NULL,NULL,NULL,NULL,NULL,NULL,NULL,NULL
"OECD members",OED,1962,2.7646641,7.4503670,1437.23,NULL,NULL,NULL,94.2176336,NULL,47.0691739
Oman,OMN,1962,NULL,NULL,NULL,55.923255,21.512583,NULL,NULL,NULL,NULL
"Other small states",OSS,1962,30.7826433,0.9979261,NULL,NULL,NULL,NULL,69.2171756,NULL,NULL
"Pacific island small states",PSS,1962,NULL,0.4701416,NULL,NULL,NULL,NULL,NULL,NULL,NULL
Pakistan,PAK,1962,NULL,0.3412255,91.32,69.345116,30.375321,NULL,NULL,NULL,NULL
Palau,PLW,1962,NULL,4.9702779,NULL,134.582520,7.514980,NULL,NULL,NULL,NULL
Panama,PAN,1962,NULL,0.9911248,542.33,-80.782127,8.537981,NULL,NULL,NULL,NULL
"Papua New Guinea",PNG,1962,NULL,0.0846105,111.60,143.955550,-6.314993,NULL,NULL,NULL,NULL
Paraguay,PRY,1962,NULL,0.1955319,NULL,-58.443832,-23.442503,NULL,NULL,NULL,NULL
Peru,PER,1962,NULL,0.9275415,305.76,-75.015152,-9.189967,NULL,NULL,NULL,NULL
Philippines,PHL,1962,NULL,0.3685631,156.70,121.774017,12.879721,NULL,NULL,NULL,NULL
Poland,POL,1962,0.1082255,7.1536052,NULL,19.145136,51.919438,NULL,98.3962171,NULL,95.8884742
Portugal,PRT,1962,9.2969643,1.0343779,407.85,-8.224454,39.399872,NULL,68.9795034,NULL,6.7407025
"Post-demographic dividend",PST,1962,2.8549672,8.1772078,1504.36,NULL,NULL,NULL,94.4306942,NULL,44.5308277
"Pre-demographic dividend",PRE,1962,NULL,0.1664170,104.07,NULL,NULL,NULL,NULL,NULL,NULL
"Puerto Rico",PRI,1962,NULL,NULL,854.74,-66.590149,18.220833,NULL,NULL,NULL,NULL
Qatar,QAT,1962,NULL,3.3889738,NULL,51.183884,25.354826,NULL,NULL,NULL,NULL
Romania,ROU,1962,NULL,3.4202859,NULL,24.966760,45.943161,NULL,NULL,NULL,NULL
"Russian Federation",RUS,1962,NULL,12.7900949,NULL,105.318756,61.524010,NULL,NULL,NULL,NULL
Rwanda,RWA,1962,NULL,0.0276262,40.94,29.873888,-1.940278,NULL,NULL,NULL,NULL
Samoa,WSM,1962,NULL,0.1583771,NULL,-172.104629,-13.759029,NULL,NULL,NULL,NULL
"San Marino",SMR,1962,NULL,NULL,NULL,12.457777,43.942360,NULL,NULL,NULL,NULL
"Sao Tome and Principe",STP,1962,NULL,0.1706163,NULL,6.613081,0.186360,NULL,NULL,NULL,NULL
"Saudi Arabia",SAU,1962,NULL,1.4339230,NULL,45.079162,23.885942,NULL,NULL,NULL,NULL
Senegal,SEN,1962,NULL,0.2403665,320.50,-14.452362,14.497401,NULL,NULL,NULL,NULL
Serbia,SRB,1962,NULL,NULL,NULL,21.005859,44.016521,NULL,NULL,NULL,NULL
Seychelles,SYC,1962,NULL,NULL,287.04,55.491977,-4.679574,NULL,NULL,NULL,NULL
"Sierra Leone",SLE,1962,NULL,0.1366245,143.47,-11.779889,8.460555,NULL,NULL,NULL,NULL
Singapore,SGP,1962,NULL,1.4729180,472.09,103.819836,1.352083,NULL,NULL,NULL,NULL
"Sint Maarten (Dutch part)",SXM,1962,NULL,NULL,NULL,NULL,NULL,NULL,NULL,NULL,NULL
"Slovak Republic",SVK,1962,NULL,NULL,NULL,19.699024,48.669026,NULL,NULL,NULL,NULL
Slovenia,SVN,1962,NULL,NULL,NULL,14.995463,46.151241,NULL,NULL,NULL,NULL
"Small states",SST,1962,30.7826433,1.7827484,NULL,NULL,NULL,NULL,69.2171756,NULL,NULL
"Solomon Islands",SLB,1962,NULL,0.1173065,NULL,160.156194,-9.645710,NULL,NULL,NULL,NULL
Somalia,SOM,1962,NULL,0.0369990,70.81,46.199616,5.152149,NULL,NULL,NULL,NULL
"South Africa",ZAF,1962,NULL,5.8871676,473.01,22.937506,-30.559482,NULL,NULL,NULL,NULL
"South Asia",SAS,1962,NULL,0.2996253,89.91,NULL,NULL,NULL,NULL,NULL,NULL
"South Asia (IDA & IBRD)",TSA,1962,NULL,0.2996253,89.91,NULL,NULL,NULL,NULL,NULL,NULL
"South Sudan",SSD,1962,NULL,NULL,NULL,NULL,NULL,NULL,NULL,NULL,NULL
Spain,ESP,1962,7.3619129,1.9357815,520.21,-3.749220,40.463667,NULL,92.7539686,NULL,18.9565597
"Sri Lanka",LKA,1962,NULL,0.2476032,138.54,80.771797,7.873054,NULL,NULL,NULL,NULL
"St. Kitts and Nevis",KNA,1962,NULL,0.2878279,246.10,-62.782998,17.357822,NULL,NULL,NULL,NULL
"St. Lucia",LCA,1962,NULL,0.1995277,NULL,-60.978893,13.909444,NULL,NULL,NULL,NULL
"St. Martin (French part)",MAF,1962,NULL,NULL,NULL,NULL,NULL,NULL,NULL,NULL,NULL
"St. Vincent and the Grenadines",VCT,1962,NULL,0.1321616,174.50,-61.287228,12.984305,NULL,NULL,NULL,NULL
"Sub-Saharan Africa",SSF,1962,NULL,0.5744314,125.98,NULL,NULL,NULL,NULL,NULL,NULL
"Sub-Saharan Africa (excluding high income)",SSA,1962,NULL,0.5745139,125.96,NULL,NULL,NULL,NULL,NULL,NULL
"Sub-Saharan Africa (IDA & IBRD countries)",TSS,1962,NULL,0.5744314,125.98,NULL,NULL,NULL,NULL,NULL,NULL
Sudan,SDN,1962,NULL,0.1855463,140.73,30.217636,12.862807,NULL,NULL,NULL,NULL
Suriname,SUR,1962,NULL,1.6290055,382.21,-56.027783,3.919305,NULL,NULL,NULL,NULL
Sweden,SWE,1962,15.2732874,6.7878598,2468.69,18.643501,60.128161,NULL,73.2255147,NULL,0.0272284
Switzerland,CHE,1962,20.8184274,4.3335721,2131.39,8.227512,46.818188,NULL,76.0177339,NULL,0.0000000
"Syrian Arab Republic",SYR,1962,NULL,0.6573694,227.79,38.996815,34.802075,NULL,NULL,NULL,NULL
Tajikistan,TJK,1962,NULL,NULL,NULL,71.276093,38.861034,NULL,NULL,NULL,NULL
Tanzania,TZA,1962,NULL,0.0719495,NULL,34.888822,-6.369028,NULL,NULL,NULL,NULL
Thailand,THA,1962,NULL,0.1731302,113.78,100.992541,15.870032,NULL,NULL,NULL,NULL
Timor-Leste,TLS,1962,NULL,NULL,NULL,125.727539,-8.874217,NULL,NULL,NULL,NULL
Togo,TGO,1962,NULL,0.0545698,81.99,0.824782,8.619543,NULL,NULL,NULL,NULL
Tonga,TON,1962,NULL,0.1660955,NULL,-175.198242,-21.178986,NULL,NULL,NULL,NULL
"Trinidad and Tobago",TTO,1962,NULL,8.2310231,704.22,-61.222503,10.691803,NULL,NULL,NULL,NULL
Tunisia,TUN,1962,NULL,0.4173359,NULL,9.537499,33.886917,NULL,NULL,NULL,NULL
Turkey,TUR,1962,0.8154737,0.7502431,309.45,35.243322,38.963745,NULL,49.0496657,NULL,59.5505618
Turkmenistan,TKM,1962,NULL,NULL,NULL,59.556278,38.969719,NULL,NULL,NULL,NULL
"Turks and Caicos Islands",TCA,1962,NULL,NULL,NULL,-71.797928,21.694025,NULL,NULL,NULL,NULL
Tuvalu,TUV,1962,NULL,NULL,NULL,177.649330,-7.109535,NULL,NULL,NULL,NULL
Uganda,UGA,1962,NULL,0.0594583,62.23,32.290275,1.373333,NULL,NULL,NULL,NULL
Ukraine,UKR,1962,NULL,NULL,NULL,31.165580,48.379433,NULL,NULL,NULL,NULL
"United Arab Emirates",ARE,1962,NULL,0.1635418,NULL,53.847818,23.424076,NULL,NULL,NULL,NULL
"United Kingdom",GBR,1962,0.7876870,11.1429284,1525.78,-3.435973,55.378051,NULL,99.2077619,NULL,80.0142186
"United States",USA,1962,1.4300619,16.0139375,3243.84,-95.712891,37.090240,NULL,95.6055140,NULL,53.2502024
"Upper middle income",UMC,1962,0.8154737,2.3997543,NULL,NULL,NULL,NULL,49.0496657,NULL,NULL
Uruguay,URY,1962,NULL,1.5406599,656.71,-55.765835,-32.522779,NULL,NULL,NULL,NULL
Uzbekistan,UZB,1962,NULL,NULL,NULL,64.585262,41.377491,NULL,NULL,NULL,NULL
Vanuatu,VUT,1962,NULL,0.5950024,NULL,166.959158,-15.376706,NULL,NULL,NULL,NULL
"Venezuela, RB",VEN,1962,NULL,6.1887163,1023.36,-66.589730,6.423750,NULL,NULL,NULL,NULL
Vietnam,VNM,1962,NULL,0.2176935,NULL,108.277199,14.058324,NULL,NULL,NULL,NULL
"Virgin Islands (U.S.)",VIR,1962,NULL,NULL,NULL,-64.896335,18.335765,NULL,NULL,NULL,NULL
"West Bank and Gaza",PSE,1962,NULL,NULL,NULL,34.308825,31.354676,NULL,NULL,NULL,NULL
World,WLD,1962,2.7646641,3.1148395,484.82,NULL,NULL,NULL,94.2176336,NULL,NULL
"Yemen, Rep.",YEM,1962,NULL,0.0127288,NULL,48.516388,15.552727,NULL,NULL,NULL,NULL
Zambia,ZMB,1962,NULL,NULL,212.58,27.849332,-13.133897,NULL,NULL,NULL,NULL
Zimbabwe,ZWE,1962,NULL,NULL,276.69,29.154857,-19.015438,NULL,NULL,NULL,NULL
Afghanistan,AFG,1963,NULL,0.0741608,78.71,67.709953,33.939110,NULL,NULL,NULL,NULL
"Africa Eastern and Southern",AFE,1963,NULL,0.9405695,142.16,NULL,NULL,NULL,NULL,NULL,NULL
"Africa Western and Central",AFW,1963,NULL,0.1123761,123.48,NULL,NULL,NULL,NULL,NULL,NULL
Albania,ALB,1963,NULL,1.1816811,NULL,20.168331,41.153332,NULL,NULL,NULL,NULL
Algeria,DZA,1963,NULL,0.4555738,226.90,1.659626,28.033886,NULL,NULL,NULL,NULL
"American Samoa",ASM,1963,NULL,NULL,NULL,-170.132217,-14.270972,NULL,NULL,NULL,NULL
Andorra,AND,1963,NULL,NULL,NULL,1.601554,42.546245,NULL,NULL,NULL,NULL
Angola,AGO,1963,NULL,0.2027391,NULL,17.873887,-11.202692,NULL,NULL,NULL,NULL
"Antigua and Barbuda",ATG,1963,NULL,1.4874694,NULL,-61.796428,17.060816,NULL,NULL,NULL,NULL
"Arab World",ARB,1963,NULL,0.8531159,NULL,NULL,NULL,NULL,NULL,NULL,NULL
Argentina,ARG,1963,NULL,2.3306846,NULL,-63.616672,-38.416097,NULL,NULL,NULL,NULL
Armenia,ARM,1963,NULL,NULL,NULL,45.038189,40.069099,NULL,NULL,NULL,NULL
Aruba,ABW,1963,NULL,214.7852167,NULL,-69.968338,12.521110,NULL,NULL,NULL,NULL
Australia,AUS,1963,1.5781656,9.2264399,1964.15,133.775136,-25.274398,NULL,87.1282177,NULL,71.8578836
Austria,AUT,1963,7.4681222,5.1551937,1167.00,14.550072,47.516231,NULL,87.8694242,NULL,17.7020895
Azerbaijan,AZE,1963,NULL,NULL,NULL,47.576927,40.143105,NULL,NULL,NULL,NULL
"Bahamas, The",BHS,1963,NULL,5.5578059,1867.01,-77.396280,25.034280,NULL,NULL,NULL,NULL
Bahrain,BHR,1963,NULL,6.7106129,NULL,50.637772,25.930414,NULL,NULL,NULL,NULL
Bangladesh,BGD,1963,NULL,0.3546738,101.90,90.356331,23.684994,NULL,NULL,NULL,NULL
Barbados,BRB,1963,NULL,0.8161724,NULL,-59.543198,13.193887,NULL,NULL,NULL,NULL
Belarus,BLR,1963,NULL,NULL,NULL,27.953389,53.709807,NULL,NULL,NULL,NULL
Belgium,BEL,1963,0.0871262,11.3869287,1535.02,4.469936,50.503887,NULL,NULL,NULL,79.2313417
Belize,BLZ,1963,NULL,0.6223631,336.94,-88.497650,17.189877,NULL,NULL,NULL,NULL
Benin,BEN,1963,NULL,0.0475885,99.86,2.315834,9.307690,NULL,NULL,NULL,NULL
Bermuda,BMU,1963,NULL,3.1519287,2020.27,-64.757370,32.321384,NULL,NULL,NULL,NULL
Bhutan,BTN,1963,NULL,NULL,NULL,90.433601,27.514162,NULL,NULL,NULL,NULL
Bolivia,BOL,1963,NULL,0.3128944,123.43,-63.588653,-16.290154,NULL,NULL,NULL,NULL
"Bosnia and Herzegovina",BIH,1963,NULL,NULL,NULL,17.679076,43.915886,NULL,NULL,NULL,NULL
Botswana,BWA,1963,NULL,NULL,71.11,24.684866,-22.328474,NULL,NULL,NULL,NULL
Brazil,BRA,1963,NULL,0.7060495,NULL,-51.925280,-14.235004,NULL,NULL,NULL,NULL
"British Virgin Islands",VGB,1963,NULL,0.4329909,NULL,-64.639968,18.420695,NULL,NULL,NULL,NULL
"Brunei Darussalam",BRN,1963,NULL,3.8026406,NULL,114.727669,4.535277,NULL,NULL,NULL,NULL
Bulgaria,BGR,1963,NULL,4.2597809,NULL,25.485830,42.733883,NULL,NULL,NULL,NULL
"Burkina Faso",BFA,1963,NULL,0.0175042,78.37,-1.561593,12.238333,NULL,NULL,NULL,NULL
Burundi,BDI,1963,NULL,0.0160811,78.51,29.918886,-3.373056,NULL,NULL,NULL,NULL
"Cabo Verde",CPV,1963,NULL,0.0678801,NULL,-24.013197,16.002082,NULL,NULL,NULL,NULL
Cambodia,KHM,1963,NULL,0.0628603,117.82,104.990963,12.565679,NULL,NULL,NULL,NULL
Cameroon,CMR,1963,NULL,0.0544923,130.18,12.354722,7.369722,NULL,NULL,NULL,NULL
Canada,CAN,1963,10.1501300,11.1321024,2374.50,-106.346771,56.130366,NULL,85.3444185,NULL,10.9168762
"Caribbean small states",CSS,1963,NULL,1.3502301,516.74,NULL,NULL,NULL,NULL,NULL,NULL
"Cayman Islands",CYM,1963,NULL,1.3384840,NULL,-80.566956,19.513469,NULL,NULL,NULL,NULL
"Central African Republic",CAF,1963,NULL,0.0464361,81.92,20.939444,6.611111,NULL,NULL,NULL,NULL
"Central Europe and the Baltics",CEB,1963,0.0913165,6.2129085,NULL,NULL,NULL,NULL,98.4208572,NULL,NULL
Chad,TCD,1963,NULL,0.0287962,116.78,18.732207,15.454166,NULL,NULL,NULL,NULL
"Channel Islands",CHI,1963,NULL,NULL,NULL,NULL,NULL,NULL,NULL,NULL,NULL
Chile,CHL,1963,NULL,2.0063732,655.25,-71.542969,-35.675147,NULL,NULL,NULL,NULL
China,CHN,1963,NULL,0.6400019,74.31,104.195397,35.861660,NULL,NULL,NULL,NULL
Colombia,COL,1963,NULL,1.2057644,274.31,-74.297333,4.570868,NULL,NULL,NULL,NULL
Comoros,COM,1963,NULL,0.0549032,NULL,43.872219,-11.875001,NULL,NULL,NULL,NULL
"Congo, Dem. Rep.",COD,1963,NULL,0.1394464,NULL,21.758664,-4.038333,NULL,NULL,NULL,NULL
"Congo, Rep.",COG,1963,NULL,0.2140068,157.06,15.827659,-0.228021,NULL,NULL,NULL,NULL
"Costa Rica",CRI,1963,NULL,0.4045515,344.35,-83.753428,9.748917,NULL,NULL,NULL,NULL
"Cote d'Ivoire",CIV,1963,NULL,0.1590837,194.21,-5.547080,7.539989,NULL,NULL,NULL,NULL
Croatia,HRV,1963,NULL,NULL,NULL,15.200000,45.100000,NULL,NULL,NULL,NULL
Cuba,CUB,1963,NULL,1.7105259,NULL,-77.781167,21.521757,NULL,NULL,NULL,NULL
Curacao,CUW,1963,NULL,NULL,NULL,NULL,NULL,NULL,NULL,NULL,NULL
Cyprus,CYP,1963,NULL,1.7068563,NULL,33.429859,35.126413,NULL,NULL,NULL,NULL
"Czech Republic",CZE,1963,NULL,NULL,NULL,15.472962,49.817492,NULL,NULL,NULL,NULL
Denmark,DNK,1963,0.0183370,8.6898313,NULL,9.501785,56.263920,NULL,99.6647824,NULL,68.1605351
Djibouti,DJI,1963,NULL,0.6560059,NULL,42.590275,11.825138,NULL,NULL,NULL,NULL
Dominica,DMA,1963,NULL,0.2331325,NULL,-61.370976,15.414999,NULL,NULL,NULL,NULL
"Dominican Republic",DOM,1963,NULL,0.3437079,258.60,-70.162651,18.735693,NULL,NULL,NULL,NULL
"Early-demographic dividend",EAR,1963,1.4806814,0.6666347,154.32,NULL,NULL,NULL,51.6262795,NULL,NULL
"East Asia & Pacific",EAS,1963,5.3121829,0.9454615,162.03,NULL,NULL,NULL,91.9957248,NULL,NULL
"East Asia & Pacific (excluding high income)",EAP,1963,NULL,0.5667207,75.17,NULL,NULL,NULL,NULL,NULL,NULL
"East Asia & Pacific (IDA & IBRD countries)",TEA,1963,NULL,0.5384292,76.01,NULL,NULL,NULL,NULL,NULL,NULL
Ecuador,ECU,1963,NULL,0.3630700,368.63,-78.183406,-1.831239,NULL,NULL,NULL,NULL
"Egypt, Arab Rep.",EGY,1963,NULL,0.7465741,NULL,30.802498,26.820553,NULL,NULL,NULL,NULL
"El Salvador",SLV,1963,NULL,0.3728670,NULL,-88.896530,13.794185,NULL,NULL,NULL,NULL
"Equatorial Guinea",GNQ,1963,NULL,0.0964982,40.75,10.267895,1.650801,NULL,NULL,NULL,NULL
Eritrea,ERI,1963,NULL,NULL,NULL,39.782334,15.179384,NULL,NULL,NULL,NULL
Estonia,EST,1963,NULL,NULL,NULL,25.013607,58.595272,NULL,NULL,NULL,NULL
Eswatini,SWZ,1963,NULL,NULL,151.50,NULL,NULL,NULL,NULL,NULL,NULL
Ethiopia,ETH,1963,NULL,0.0177199,NULL,40.489673,9.145000,NULL,NULL,NULL,NULL
"Euro area",EMU,1963,3.4291827,NULL,3535.26,NULL,NULL,NULL,94.5093599,NULL,47.0729001
"Europe & Central Asia",ECS,1963,3.5266714,8.1896704,NULL,NULL,NULL,NULL,93.9311025,NULL,NULL
"Europe & Central Asia (excluding high income)",ECA,1963,1.4806814,9.9134617,NULL,NULL,NULL,NULL,51.6262795,NULL,NULL
"Europe & Central Asia (IDA & IBRD countries)",TEC,1963,0.3270223,9.5728274,NULL,NULL,NULL,NULL,90.4821558,NULL,NULL
"European Union",EUU,1963,3.4328539,5.7368792,NULL,NULL,NULL,NULL,94.1956552,NULL,42.1759490
"Faroe Islands",FRO,1963,NULL,3.4666481,NULL,-6.911806,61.892635,NULL,NULL,NULL,NULL
Fiji,FJI,1963,NULL,0.5547108,296.71,179.414413,-16.578193,NULL,NULL,NULL,NULL
Finland,FIN,1963,6.4218798,4.2796309,1522.32,25.748151,61.924110,NULL,51.6795900,NULL,19.0359408
"Fragile and conflict affected situations",FCS,1963,NULL,0.4926974,162.58,NULL,NULL,NULL,NULL,NULL,NULL
France,FRA,1963,4.0537796,6.8752914,1744.64,2.213749,46.227638,NULL,95.8915132,NULL,38.2104921
"French Polynesia",PYF,1963,NULL,0.7600263,NULL,-149.406843,-17.679742,NULL,NULL,NULL,NULL
Gabon,GAB,1963,NULL,0.1416998,298.47,11.609444,-0.803689,NULL,NULL,NULL,NULL
"Gambia, The",GMB,1963,NULL,0.0756794,NULL,-15.310139,13.443182,NULL,NULL,NULL,NULL
Georgia,GEO,1963,NULL,NULL,NULL,43.356892,42.315407,NULL,NULL,NULL,NULL
Germany,DEU,1963,0.5733682,NULL,NULL,10.451526,51.165691,NULL,99.3022070,NULL,85.7424257
Ghana,GHA,1963,NULL,0.2360905,211.06,-1.023194,7.946527,NULL,NULL,NULL,NULL
Gibraltar,GIB,1963,NULL,2.2100125,NULL,-5.345374,36.137741,NULL,NULL,NULL,NULL
Greece,GRC,1963,2.3355007,1.4456749,695.23,21.824312,39.074208,NULL,97.6810757,NULL,45.0315221
Greenland,GRL,1963,NULL,9.0667582,NULL,-42.604303,71.706936,NULL,NULL,NULL,NULL
Grenada,GRD,1963,NULL,0.1570298,NULL,-61.604171,12.262776,NULL,NULL,NULL,NULL
Guam,GUM,1963,NULL,NULL,NULL,144.793731,13.444304,NULL,NULL,NULL,NULL
Guatemala,GTM,1963,NULL,0.3375455,280.10,-90.230759,15.783471,NULL,NULL,NULL,NULL
Guinea,GIN,1963,NULL,0.1897124,NULL,-9.696645,9.945587,NULL,NULL,NULL,NULL
Guinea-Bissau,GNB,1963,NULL,0.0750715,NULL,-15.180413,11.803749,NULL,NULL,NULL,NULL
Guyana,GUY,1963,NULL,0.9895210,282.30,-58.930180,4.860416,NULL,NULL,NULL,NULL
Haiti,HTI,1963,NULL,0.0608519,71.96,-72.285215,18.971187,NULL,NULL,NULL,NULL
"Heavily indebted poor countries (HIPC)",HPC,1963,NULL,0.1262035,103.54,NULL,NULL,NULL,NULL,NULL,NULL
"High income",HIC,1963,2.7808753,8.2967488,1622.11,NULL,NULL,NULL,94.6816494,NULL,47.0946310
Honduras,HND,1963,NULL,0.3209249,185.05,-86.241905,15.199999,NULL,NULL,NULL,NULL
"Hong Kong SAR, China",HKG,1963,NULL,1.2423786,565.73,114.109497,22.396428,NULL,NULL,NULL,NULL
Hungary,HUN,1963,NULL,5.5790456,NULL,19.503304,47.162494,NULL,NULL,NULL,NULL
"IBRD only",IBD,1963,0.3270223,1.8522669,NULL,NULL,NULL,NULL,90.4821558,NULL,NULL
Iceland,ISL,1963,30.2899808,7.0316774,1831.71,-19.020835,64.963051,NULL,69.7100192,NULL,0.0000000
"IDA & IBRD total",IBT,1963,0.3270223,1.5982942,NULL,NULL,NULL,NULL,90.4821558,NULL,NULL
"IDA blend",IDB,1963,NULL,0.4296764,112.88,NULL,NULL,NULL,NULL,NULL,NULL
"IDA only",IDX,1963,NULL,0.2279413,NULL,NULL,NULL,NULL,NULL,NULL,NULL
"IDA total",IDA,1963,NULL,0.3071303,103.60,NULL,NULL,NULL,NULL,NULL,NULL
India,IND,1963,NULL,0.3217950,101.13,78.962880,20.593684,NULL,NULL,NULL,NULL
Indonesia,IDN,1963,NULL,0.2397832,NULL,113.921327,-0.789275,NULL,NULL,NULL,NULL
"Iran, Islamic Rep.",IRN,1963,NULL,1.7458331,208.13,53.688046,32.427908,NULL,NULL,NULL,NULL
Iraq,IRQ,1963,NULL,1.1908938,250.79,43.679291,33.223191,NULL,NULL,NULL,NULL
Ireland,IRL,1963,1.3581201,4.7189655,852.14,-8.243890,53.412910,NULL,71.1117273,NULL,39.9656357
"Isle of Man",IMN,1963,NULL,NULL,NULL,-4.548056,54.236107,NULL,NULL,NULL,NULL
Israel,ISR,1963,NULL,3.4512034,1257.81,34.851612,31.046051,NULL,NULL,NULL,NULL
Italy,ITA,1963,10.6441546,3.2151001,1126.02,12.567380,41.871940,NULL,89.1611811,NULL,4.8517444
Jamaica,JAM,1963,NULL,1.4076858,485.24,-77.297508,18.109581,NULL,NULL,NULL,NULL
Japan,JPN,1963,5.3909565,3.3912676,724.69,138.252924,36.204824,NULL,94.6090453,NULL,33.4437707
Jordan,JOR,1963,NULL,1.1627281,NULL,36.238414,30.585164,NULL,NULL,NULL,NULL
Kazakhstan,KAZ,1963,NULL,NULL,NULL,66.923684,48.019573,NULL,NULL,NULL,NULL
Kenya,KEN,1963,NULL,0.3199406,103.78,37.906193,-0.023559,NULL,NULL,NULL,NULL
Kiribati,KIR,1963,NULL,0.4134906,NULL,-168.734039,-3.370417,NULL,NULL,NULL,NULL
"Korea, Dem. People's Rep.",PRK,1963,NULL,2.7237778,NULL,127.510093,40.339852,NULL,NULL,NULL,NULL
"Korea, Rep.",KOR,1963,NULL,0.7741098,146.31,127.766922,35.907757,NULL,NULL,NULL,NULL
Kosovo,XKX,1963,NULL,NULL,NULL,20.902977,42.602636,NULL,NULL,NULL,NULL
Kuwait,KWT,1963,NULL,44.9521090,NULL,47.481766,29.311660,NULL,NULL,NULL,NULL
"Kyrgyz Republic",KGZ,1963,NULL,NULL,NULL,74.766098,41.204380,NULL,NULL,NULL,NULL
"Lao PDR",LAO,1963,NULL,0.0645215,NULL,102.495496,19.856270,NULL,NULL,NULL,NULL
"Late-demographic dividend",LTE,1963,0.4512097,2.5721892,NULL,NULL,NULL,NULL,96.4304414,NULL,NULL
"Latin America & Caribbean",LCN,1963,NULL,1.3771243,NULL,NULL,NULL,NULL,NULL,NULL,NULL
"Latin America & Caribbean (excluding high income)",LAC,1963,NULL,1.2875303,NULL,NULL,NULL,NULL,NULL,NULL,NULL
"Latin America & the Caribbean (IDA & IBRD countries)",TLA,1963,NULL,1.3052859,NULL,NULL,NULL,NULL,NULL,NULL,NULL
Latvia,LVA,1963,NULL,NULL,NULL,24.603189,56.879635,NULL,NULL,NULL,NULL
"Least developed countries: UN classification",LDC,1963,NULL,0.1572423,NULL,NULL,NULL,NULL,NULL,NULL,NULL
Lebanon,LBN,1963,NULL,1.5259161,NULL,35.862285,33.854721,NULL,NULL,NULL,NULL
Lesotho,LSO,1963,NULL,NULL,53.09,28.233608,-29.609988,NULL,NULL,NULL,NULL
Liberia,LBR,1963,NULL,0.2984563,NULL,-9.429499,6.428055,NULL,NULL,NULL,NULL
Libya,LBY,1963,NULL,0.9103796,NULL,17.228331,26.335100,NULL,NULL,NULL,NULL
Liechtenstein,LIE,1963,NULL,NULL,NULL,9.555373,47.166000,NULL,NULL,NULL,NULL
Lithuania,LTU,1963,NULL,NULL,NULL,23.881275,55.169438,NULL,NULL,NULL,NULL
"Low & middle income",LMY,1963,1.4806814,1.5182571,147.77,NULL,NULL,NULL,51.6262795,NULL,NULL
"Low income",LIC,1963,NULL,0.3296487,NULL,NULL,NULL,NULL,NULL,NULL,NULL
"Lower middle income",LMC,1963,NULL,0.5193570,100.72,NULL,NULL,NULL,NULL,NULL,NULL
Luxembourg,LUX,1963,0.0050708,35.3235853,2441.04,6.129583,49.815273,NULL,98.7830081,NULL,87.4538745
"Macao SAR, China",MAC,1963,NULL,0.5771826,NULL,113.543873,22.198745,NULL,NULL,NULL,NULL
Madagascar,MDG,1963,NULL,0.0842171,138.41,46.869107,-18.766947,NULL,NULL,NULL,NULL
Malawi,MWI,1963,NULL,NULL,48.51,34.301525,-13.254308,NULL,NULL,NULL,NULL
Malaysia,MYS,1963,NULL,0.5536997,279.72,101.975766,4.210484,NULL,NULL,NULL,NULL
Maldives,MDV,1963,NULL,NULL,NULL,73.220680,3.202778,NULL,NULL,NULL,NULL
Mali,MLI,1963,NULL,0.0323463,NULL,-3.996166,17.570692,NULL,NULL,NULL,NULL
Malta,MLT,1963,NULL,1.2733034,NULL,14.375416,35.937496,NULL,NULL,NULL,NULL
"Marshall Islands",MHL,1963,NULL,NULL,NULL,171.184478,7.131474,NULL,NULL,NULL,NULL
Mauritania,MRT,1963,NULL,0.0947604,181.09,-10.940835,21.007890,NULL,NULL,NULL,NULL
Mauritius,MUS,1963,NULL,0.2907641,NULL,57.552152,-20.348404,NULL,NULL,NULL,NULL
Mexico,MEX,1963,NULL,1.6005282,409.05,-102.552784,23.634501,NULL,NULL,NULL,NULL
"Micronesia, Fed. Sts.",FSM,1963,NULL,NULL,NULL,150.550812,7.425554,NULL,NULL,NULL,NULL
"Middle East & North Africa",MEA,1963,NULL,1.1699793,NULL,NULL,NULL,NULL,NULL,NULL,NULL
"Middle East & North Africa (excluding high income)",MNA,1963,NULL,0.8880133,NULL,NULL,NULL,NULL,NULL,NULL,NULL
"Middle East & North Africa (IDA & IBRD countries)",TMN,1963,NULL,0.8820570,NULL,NULL,NULL,NULL,NULL,NULL,NULL
"Middle income",MIC,1963,1.4806814,1.5980294,151.99,NULL,NULL,NULL,51.6262795,NULL,NULL
Moldova,MDA,1963,NULL,NULL,NULL,28.369885,47.411631,NULL,NULL,NULL,NULL
Monaco,MCO,1963,NULL,NULL,NULL,7.412841,43.750298,NULL,NULL,NULL,NULL
Mongolia,MNG,1963,NULL,1.5373168,NULL,103.846656,46.862496,NULL,NULL,NULL,NULL
Montenegro,MNE,1963,NULL,NULL,NULL,19.374390,42.708678,NULL,NULL,NULL,NULL
Morocco,MAR,1963,NULL,0.2938296,196.53,-7.092620,31.791702,NULL,NULL,NULL,NULL
Mozambique,MOZ,1963,NULL,0.2163108,NULL,35.529562,-18.665695,NULL,NULL,NULL,NULL
Myanmar,MMR,1963,NULL,0.1136540,NULL,95.956223,21.913965,NULL,NULL,NULL,NULL
Namibia,NAM,1963,NULL,NULL,NULL,18.490410,-22.957640,NULL,NULL,NULL,NULL
Nauru,NRU,1963,NULL,NULL,NULL,166.931503,-0.522778,NULL,NULL,NULL,NULL
Nepal,NPL,1963,NULL,0.0093364,46.86,84.124008,28.394857,NULL,NULL,NULL,NULL
Netherlands,NLD,1963,0.0000000,7.6239249,1328.04,5.291266,52.132633,NULL,99.9851090,NULL,69.1717499
"New Caledonia",NCL,1963,NULL,7.2313069,NULL,165.618042,-20.904305,NULL,NULL,NULL,NULL
"New Zealand",NZL,1963,31.0953550,4.8303361,2622.22,174.885971,-40.900557,NULL,68.9046450,NULL,12.6407873
Nicaragua,NIC,1963,NULL,0.4333535,150.50,-85.207229,12.865416,NULL,NULL,NULL,NULL
Niger,NER,1963,NULL,0.0238247,158.72,8.081666,17.607789,NULL,NULL,NULL,NULL
Nigeria,NGA,1963,NULL,0.1113851,107.54,8.675277,9.081999,NULL,NULL,NULL,NULL
"North America",NAC,1963,2.0053499,15.9970675,3283.14,NULL,NULL,NULL,95.0098724,NULL,49.4318113
"North Macedonia",MKD,1963,NULL,NULL,NULL,NULL,NULL,NULL,NULL,NULL,NULL
"Northern Mariana Islands",MNP,1963,NULL,NULL,NULL,145.384690,17.330830,NULL,NULL,NULL,NULL
Norway,NOR,1963,42.7194318,4.0865160,1775.58,8.468946,60.472024,NULL,58.1874245,NULL,0.0000000
"Not classified",INX,1963,NULL,NULL,NULL,NULL,NULL,NULL,NULL,NULL,NULL
"OECD members",OED,1963,2.7732032,7.7572495,1528.04,NULL,NULL,NULL,94.4241386,NULL,47.2206655
Oman,OMN,1963,NULL,NULL,NULL,55.923255,21.512583,NULL,NULL,NULL,NULL
"Other small states",OSS,1963,30.2899808,2.0879766,NULL,NULL,NULL,NULL,69.7100192,NULL,NULL
"Pacific island small states",PSS,1963,NULL,0.4770616,NULL,NULL,NULL,NULL,NULL,NULL,NULL
Pakistan,PAK,1963,NULL,0.3826352,95.70,69.345116,30.375321,NULL,NULL,NULL,NULL
Palau,PLW,1963,NULL,5.2058489,NULL,134.582520,7.514980,NULL,NULL,NULL,NULL
Panama,PAN,1963,NULL,0.9560479,583.41,-80.782127,8.537981,NULL,NULL,NULL,NULL
"Papua New Guinea",PNG,1963,NULL,0.1075843,115.66,143.955550,-6.314993,NULL,NULL,NULL,NULL
Paraguay,PRY,1963,NULL,0.1993380,NULL,-58.443832,-23.442503,NULL,NULL,NULL,NULL
Peru,PER,1963,NULL,0.9251785,325.52,-75.015152,-9.189967,NULL,NULL,NULL,NULL
Philippines,PHL,1963,NULL,0.3958636,168.04,121.774017,12.879721,NULL,NULL,NULL,NULL
Poland,POL,1963,0.0913165,7.5286213,NULL,19.145136,51.919438,NULL,98.4208572,NULL,96.1316694
Portugal,PRT,1963,9.7105825,1.1102086,432.51,-8.224454,39.399872,NULL,70.8349701,NULL,4.8090198
"Post-demographic dividend",PST,1963,2.8562011,8.5291633,1601.25,NULL,NULL,NULL,94.6243072,NULL,44.7466578
"Pre-demographic dividend",PRE,1963,NULL,0.1750655,107.77,NULL,NULL,NULL,NULL,NULL,NULL
"Puerto Rico",PRI,1963,NULL,NULL,931.75,-66.590149,18.220833,NULL,NULL,NULL,NULL
Qatar,QAT,1963,NULL,99.4565545,NULL,51.183884,25.354826,NULL,NULL,NULL,NULL
Romania,ROU,1963,NULL,3.6988266,NULL,24.966760,45.943161,NULL,NULL,NULL,NULL
"Russian Federation",RUS,1963,NULL,13.5650601,NULL,105.318756,61.524010,NULL,NULL,NULL,NULL
Rwanda,RWA,1963,NULL,0.0271593,41.22,29.873888,-1.940278,NULL,NULL,NULL,NULL
Samoa,WSM,1963,NULL,0.1840371,NULL,-172.104629,-13.759029,NULL,NULL,NULL,NULL
"San Marino",SMR,1963,NULL,NULL,NULL,12.457777,43.942360,NULL,NULL,NULL,NULL
"Sao Tome and Principe",STP,1963,NULL,0.1141710,NULL,6.613081,0.186360,NULL,NULL,NULL,NULL
"Saudi Arabia",SAU,1963,NULL,1.5377475,NULL,45.079162,23.885942,NULL,NULL,NULL,NULL
Senegal,SEN,1963,NULL,0.2475102,322.30,-14.452362,14.497401,NULL,NULL,NULL,NULL
Serbia,SRB,1963,NULL,NULL,NULL,21.005859,44.016521,NULL,NULL,NULL,NULL
Seychelles,SYC,1963,NULL,0.1623428,308.20,55.491977,-4.679574,NULL,NULL,NULL,NULL
"Sierra Leone",SLE,1963,NULL,0.1526114,143.62,-11.779889,8.460555,NULL,NULL,NULL,NULL
Singapore,SGP,1963,NULL,1.8937655,511.21,103.819836,1.352083,NULL,NULL,NULL,NULL
"Sint Maarten (Dutch part)",SXM,1963,NULL,NULL,NULL,NULL,NULL,NULL,NULL,NULL,NULL
"Slovak Republic",SVK,1963,NULL,NULL,NULL,19.699024,48.669026,NULL,NULL,NULL,NULL
Slovenia,SVN,1963,NULL,NULL,NULL,14.995463,46.151241,NULL,NULL,NULL,NULL
"Small states",SST,1963,30.2899808,1.7495148,NULL,NULL,NULL,NULL,69.7100192,NULL,NULL
"Solomon Islands",SLB,1963,NULL,0.1138484,NULL,160.156194,-9.645710,NULL,NULL,NULL,NULL
Somalia,SOM,1963,NULL,0.0349657,73.61,46.199616,5.152149,NULL,NULL,NULL,NULL
"South Africa",ZAF,1963,NULL,5.9613371,511.50,22.937506,-30.559482,NULL,NULL,NULL,NULL
"South Asia",SAS,1963,NULL,0.3185255,98.98,NULL,NULL,NULL,NULL,NULL,NULL
"South Asia (IDA & IBRD)",TSA,1963,NULL,0.3185255,98.98,NULL,NULL,NULL,NULL,NULL,NULL
"South Sudan",SSD,1963,NULL,NULL,NULL,NULL,NULL,NULL,NULL,NULL,NULL
Spain,ESP,1963,9.3161377,1.8795093,609.49,-3.749220,40.463667,NULL,91.0465654,NULL,10.1363092
"Sri Lanka",LKA,1963,NULL,0.2391029,117.07,80.771797,7.873054,NULL,NULL,NULL,NULL
"St. Kitts and Nevis",KNA,1963,NULL,0.3628609,253.98,-62.782998,17.357822,NULL,NULL,NULL,NULL
"St. Lucia",LCA,1963,NULL,0.2360375,NULL,-60.978893,13.909444,NULL,NULL,NULL,NULL
"St. Martin (French part)",MAF,1963,NULL,NULL,NULL,NULL,NULL,NULL,NULL,NULL,NULL
"St. Vincent and the Grenadines",VCT,1963,NULL,0.1742043,162.81,-61.287228,12.984305,NULL,NULL,NULL,NULL
"Sub-Saharan Africa",SSF,1963,NULL,0.5879674,132.05,NULL,NULL,NULL,NULL,NULL,NULL
"Sub-Saharan Africa (excluding high income)",SSA,1963,NULL,0.5880520,132.02,NULL,NULL,NULL,NULL,NULL,NULL
"Sub-Saharan Africa (IDA & IBRD countries)",TSS,1963,NULL,0.5879674,132.05,NULL,NULL,NULL,NULL,NULL,NULL
Sudan,SDN,1963,NULL,0.2036032,139.31,30.217636,12.862807,NULL,NULL,NULL,NULL
Suriname,SUR,1963,NULL,1.7045152,403.76,-56.027783,3.919305,NULL,NULL,NULL,NULL
Sweden,SWE,1963,13.9027553,7.2816033,2657.02,18.643501,60.128161,NULL,74.9848054,NULL,0.1083344
Switzerland,CHE,1963,18.1946033,5.1112955,2294.18,8.227512,46.818188,NULL,79.5627854,NULL,0.0000000
"Syrian Arab Republic",SYR,1963,NULL,0.7174288,238.44,38.996815,34.802075,NULL,NULL,NULL,NULL
Tajikistan,TJK,1963,NULL,NULL,NULL,71.276093,38.861034,NULL,NULL,NULL,NULL
Tanzania,TZA,1963,NULL,0.0732183,NULL,34.888822,-6.369028,NULL,NULL,NULL,NULL
Thailand,THA,1963,NULL,0.1858777,118.14,100.992541,15.870032,NULL,NULL,NULL,NULL
Timor-Leste,TLS,1963,NULL,NULL,NULL,125.727539,-8.874217,NULL,NULL,NULL,NULL
Togo,TGO,1963,NULL,0.0651708,87.79,0.824782,8.619543,NULL,NULL,NULL,NULL
Tonga,TON,1963,NULL,0.1594926,NULL,-175.198242,-21.178986,NULL,NULL,NULL,NULL
"Trinidad and Tobago",TTO,1963,NULL,1.4677078,760.40,-61.222503,10.691803,NULL,NULL,NULL,NULL
Tunisia,TUN,1963,NULL,0.4445534,NULL,9.537499,33.886917,NULL,NULL,NULL,NULL
Turkey,TUR,1963,1.4806814,0.7676379,350.66,35.243322,38.963745,NULL,51.6262795,NULL,38.2626161
Turkmenistan,TKM,1963,NULL,NULL,NULL,59.556278,38.969719,NULL,NULL,NULL,NULL
"Turks and Caicos Islands",TCA,1963,NULL,NULL,NULL,-71.797928,21.694025,NULL,NULL,NULL,NULL
Tuvalu,TUV,1963,NULL,NULL,NULL,177.649330,-7.109535,NULL,NULL,NULL,NULL
Uganda,UGA,1963,NULL,0.0579908,69.17,32.290275,1.373333,NULL,NULL,NULL,NULL
Ukraine,UKR,1963,NULL,NULL,NULL,31.165580,48.379433,NULL,NULL,NULL,NULL
"United Arab Emirates",ARE,1963,NULL,0.1758331,NULL,53.847818,23.424076,NULL,NULL,NULL,NULL
"United Kingdom",GBR,1963,1.1326209,11.2548535,1613.46,-3.435973,55.378051,NULL,98.8681318,NULL,79.9139341
"United States",USA,1963,1.3653905,16.4827621,3374.52,-95.712891,37.090240,NULL,95.7693156,NULL,54.3900654
"Upper middle income",UMC,1963,1.4806814,2.4651470,NULL,NULL,NULL,NULL,51.6262795,NULL,NULL
Uruguay,URY,1963,NULL,1.6392869,584.29,-55.765835,-32.522779,NULL,NULL,NULL,NULL
Uzbekistan,UZB,1963,NULL,NULL,NULL,64.585262,41.377491,NULL,NULL,NULL,NULL
Vanuatu,VUT,1963,NULL,0.4718489,NULL,166.959158,-15.376706,NULL,NULL,NULL,NULL
"Venezuela, RB",VEN,1963,NULL,6.2085931,1077.40,-66.589730,6.423750,NULL,NULL,NULL,NULL
Vietnam,VNM,1963,NULL,0.1969970,NULL,108.277199,14.058324,NULL,NULL,NULL,NULL
"Virgin Islands (U.S.)",VIR,1963,NULL,NULL,NULL,-64.896335,18.335765,NULL,NULL,NULL,NULL
"West Bank and Gaza",PSE,1963,NULL,NULL,NULL,34.308825,31.354676,NULL,NULL,NULL,NULL
World,WLD,1963,2.7732032,3.2211953,513.26,NULL,NULL,NULL,94.4241386,NULL,NULL
"Yemen, Rep.",YEM,1963,NULL,0.0145182,NULL,48.516388,15.552727,NULL,NULL,NULL,NULL
Zambia,ZMB,1963,NULL,NULL,213.90,27.849332,-13.133897,NULL,NULL,NULL,NULL
Zimbabwe,ZWE,1963,NULL,NULL,277.48,29.154857,-19.015438,NULL,NULL,NULL,NULL
Afghanistan,AFG,1964,NULL,0.0861737,82.10,67.709953,33.939110,NULL,NULL,NULL,NULL
"Africa Eastern and Southern",AFE,1964,NULL,0.9960334,150.88,NULL,NULL,NULL,NULL,NULL,NULL
"Africa Western and Central",AFW,1964,NULL,0.1332585,131.89,NULL,NULL,NULL,NULL,NULL,NULL
Albania,ALB,1964,NULL,1.1117420,NULL,20.168331,41.153332,NULL,NULL,NULL,NULL
Algeria,DZA,1964,NULL,0.4623627,238.04,1.659626,28.033886,NULL,NULL,NULL,NULL
"American Samoa",ASM,1964,NULL,NULL,NULL,-170.132217,-14.270972,NULL,NULL,NULL,NULL
Andorra,AND,1964,NULL,NULL,NULL,1.601554,42.546245,NULL,NULL,NULL,NULL
Angola,AGO,1964,NULL,0.2135622,NULL,17.873887,-11.202692,NULL,NULL,NULL,NULL
"Antigua and Barbuda",ATG,1964,NULL,1.5904478,NULL,-61.796428,17.060816,NULL,NULL,NULL,NULL
"Arab World",ARB,1964,NULL,0.9723814,NULL,NULL,NULL,NULL,NULL,NULL,NULL
Argentina,ARG,1964,NULL,2.5534416,NULL,-63.616672,-38.416097,NULL,NULL,NULL,NULL
Armenia,ARM,1964,NULL,NULL,NULL,45.038189,40.069099,NULL,NULL,NULL,NULL
Aruba,ABW,1964,NULL,207.6266987,NULL,-69.968338,12.521110,NULL,NULL,NULL,NULL
Australia,AUS,1964,1.5727119,9.7590734,2128.07,133.775136,-25.274398,NULL,87.9758066,NULL,72.7075528
Austria,AUT,1964,8.1579814,5.3910040,1269.41,14.550072,47.516231,NULL,89.0883999,NULL,16.8425814
Azerbaijan,AZE,1964,NULL,NULL,NULL,47.576927,40.143105,NULL,NULL,NULL,NULL
"Bahamas, The",BHS,1964,NULL,8.1181108,1994.44,-77.396280,25.034280,NULL,NULL,NULL,NULL
Bahrain,BHR,1964,NULL,8.7420279,NULL,50.637772,25.930414,NULL,NULL,NULL,NULL
Bangladesh,BGD,1964,NULL,0.3542015,100.22,90.356331,23.684994,NULL,NULL,NULL,NULL
Barbados,BRB,1964,NULL,0.7659514,NULL,-59.543198,13.193887,NULL,NULL,NULL,NULL
Belarus,BLR,1964,NULL,NULL,NULL,27.953389,53.709807,NULL,NULL,NULL,NULL
Belgium,BEL,1964,0.0818037,11.0536547,1701.85,4.469936,50.503887,NULL,NULL,NULL,74.3175515
Belize,BLZ,1964,NULL,0.8182965,351.16,-88.497650,17.189877,NULL,NULL,NULL,NULL
Benin,BEN,1964,NULL,0.0553036,104.34,2.315834,9.307690,NULL,NULL,NULL,NULL
Bermuda,BMU,1964,NULL,4.1244376,2199.73,-64.757370,32.321384,NULL,NULL,NULL,NULL
Bhutan,BTN,1964,NULL,NULL,NULL,90.433601,27.514162,NULL,NULL,NULL,NULL
Bolivia,BOL,1964,NULL,0.3743199,136.31,-63.588653,-16.290154,NULL,NULL,NULL,NULL
"Bosnia and Herzegovina",BIH,1964,NULL,NULL,NULL,17.679076,43.915886,NULL,NULL,NULL,NULL
Botswana,BWA,1964,NULL,NULL,75.96,24.684866,-22.328474,NULL,NULL,NULL,NULL
Brazil,BRA,1964,NULL,0.6998843,NULL,-51.925280,-14.235004,NULL,NULL,NULL,NULL
"British Virgin Islands",VGB,1964,NULL,0.8484498,NULL,-64.639968,18.420695,NULL,NULL,NULL,NULL
"Brunei Darussalam",BRN,1964,NULL,3.4863472,NULL,114.727669,4.535277,NULL,NULL,NULL,NULL
Bulgaria,BGR,1964,NULL,5.2629879,NULL,25.485830,42.733883,NULL,NULL,NULL,NULL
"Burkina Faso",BFA,1964,NULL,0.0215753,80.47,-1.561593,12.238333,NULL,NULL,NULL,NULL
Burundi,BDI,1964,NULL,0.0157523,86.16,29.918886,-3.373056,NULL,NULL,NULL,NULL
"Cabo Verde",CPV,1964,NULL,0.1315817,NULL,-24.013197,16.002082,NULL,NULL,NULL,NULL
Cambodia,KHM,1964,NULL,0.0538631,123.65,104.990963,12.565679,NULL,NULL,NULL,NULL
Cameroon,CMR,1964,NULL,0.0597841,137.63,12.354722,7.369722,NULL,NULL,NULL,NULL
Canada,CAN,1964,10.4184603,12.3053704,2555.11,-106.346771,56.130366,NULL,85.4201311,NULL,11.8930909
"Caribbean small states",CSS,1964,NULL,2.3629522,547.95,NULL,NULL,NULL,NULL,NULL,NULL
"Cayman Islands",CYM,1964,NULL,1.3255814,NULL,-80.566956,19.513469,NULL,NULL,NULL,NULL
"Central African Republic",CAF,1964,NULL,0.0455919,88.29,20.939444,6.611111,NULL,NULL,NULL,NULL
"Central Europe and the Baltics",CEB,1964,0.0958541,6.6123336,NULL,NULL,NULL,NULL,98.5184237,NULL,NULL
Chad,TCD,1964,NULL,0.0304969,120.82,18.732207,15.454166,NULL,NULL,NULL,NULL
"Channel Islands",CHI,1964,NULL,NULL,NULL,NULL,NULL,NULL,NULL,NULL,NULL
Chile,CHL,1964,NULL,1.9864975,678.13,-71.542969,-35.675147,NULL,NULL,NULL,NULL
China,CHN,1964,NULL,0.6256461,85.50,104.195397,35.861660,NULL,NULL,NULL,NULL
Colombia,COL,1964,NULL,1.1944108,328.66,-74.297333,4.570868,NULL,NULL,NULL,NULL
Comoros,COM,1964,NULL,0.0539895,NULL,43.872219,-11.875001,NULL,NULL,NULL,NULL
"Congo, Dem. Rep.",COD,1964,NULL,0.1169269,NULL,21.758664,-4.038333,NULL,NULL,NULL,NULL
"Congo, Rep.",COG,1964,NULL,0.2378727,165.01,15.827659,-0.228021,NULL,NULL,NULL,NULL
"Costa Rica",CRI,1964,NULL,0.4381516,352.34,-83.753428,9.748917,NULL,NULL,NULL,NULL
"Cote d'Ivoire",CIV,1964,NULL,0.1873395,226.23,-5.547080,7.539989,NULL,NULL,NULL,NULL
Croatia,HRV,1964,NULL,NULL,NULL,15.200000,45.100000,NULL,NULL,NULL,NULL
Cuba,CUB,1964,NULL,1.8341451,NULL,-77.781167,21.521757,NULL,NULL,NULL,NULL
Curacao,CUW,1964,NULL,NULL,NULL,NULL,NULL,NULL,NULL,NULL,NULL
Cyprus,CYP,1964,NULL,1.7301116,NULL,33.429859,35.126413,NULL,NULL,NULL,NULL
"Czech Republic",CZE,1964,NULL,NULL,NULL,15.472962,49.817492,NULL,NULL,NULL,NULL
Denmark,DNK,1964,0.0175108,9.1463929,NULL,9.501785,56.263920,NULL,99.4088347,NULL,64.8365679
Djibouti,DJI,1964,NULL,0.7839694,NULL,42.590275,11.825138,NULL,NULL,NULL,NULL
Dominica,DMA,1964,NULL,0.2294708,NULL,-61.370976,15.414999,NULL,NULL,NULL,NULL
"Dominican Republic",DOM,1964,NULL,0.4655581,272.97,-70.162651,18.735693,NULL,NULL,NULL,NULL
"Early-demographic dividend",EAR,1964,1.1058151,0.6930070,167.81,NULL,NULL,NULL,53.9748924,NULL,NULL
"East Asia & Pacific",EAS,1964,4.9718781,0.9745701,181.90,NULL,NULL,NULL,92.6779712,NULL,NULL
"East Asia & Pacific (excluding high income)",EAP,1964,NULL,0.5624760,85.06,NULL,NULL,NULL,NULL,NULL,NULL
"East Asia & Pacific (IDA & IBRD countries)",TEA,1964,NULL,0.5319730,86.00,NULL,NULL,NULL,NULL,NULL,NULL
Ecuador,ECU,1964,NULL,0.4211345,440.56,-78.183406,-1.831239,NULL,NULL,NULL,NULL
"Egypt, Arab Rep.",EGY,1964,NULL,0.8609353,NULL,30.802498,26.820553,NULL,NULL,NULL,NULL
"El Salvador",SLV,1964,NULL,0.3962321,NULL,-88.896530,13.794185,NULL,NULL,NULL,NULL
"Equatorial Guinea",GNQ,1964,NULL,0.0948540,46.98,10.267895,1.650801,NULL,NULL,NULL,NULL
Eritrea,ERI,1964,NULL,NULL,NULL,39.782334,15.179384,NULL,NULL,NULL,NULL
Estonia,EST,1964,NULL,NULL,NULL,25.013607,58.595272,NULL,NULL,NULL,NULL
Eswatini,SWZ,1964,NULL,0.0301298,177.97,NULL,NULL,NULL,NULL,NULL,NULL
Ethiopia,ETH,1964,NULL,0.0166839,NULL,40.489673,9.145000,NULL,NULL,NULL,NULL
"Euro area",EMU,1964,3.1298779,NULL,3896.68,NULL,NULL,NULL,95.0037469,NULL,48.1842600
"Europe & Central Asia",ECS,1964,3.4739463,8.5171851,NULL,NULL,NULL,NULL,94.1111387,NULL,NULL
"Europe & Central Asia (excluding high income)",ECA,1964,1.1058151,10.4220377,NULL,NULL,NULL,NULL,53.9748924,NULL,NULL
"Europe & Central Asia (IDA & IBRD countries)",TEC,1964,0.2693909,10.0493703,NULL,NULL,NULL,NULL,90.8647200,NULL,NULL
"European Union",EUU,1964,3.2394591,6.0114163,NULL,NULL,NULL,NULL,94.5696987,NULL,42.8601604
"Faroe Islands",FRO,1964,NULL,3.3236562,NULL,-6.911806,61.892635,NULL,NULL,NULL,NULL
Fiji,FJI,1964,NULL,0.9441423,310.81,179.414413,-16.578193,NULL,NULL,NULL,NULL
Finland,FIN,1964,5.8845214,5.0241899,1707.50,25.748151,61.924110,NULL,55.2992713,NULL,21.8110545
"Fragile and conflict affected situations",FCS,1964,NULL,0.4987769,156.29,NULL,NULL,NULL,NULL,NULL,NULL
France,FRA,1964,3.1152281,7.0139946,1909.54,2.213749,46.227638,NULL,96.6944300,NULL,45.9464660
"French Polynesia",PYF,1964,NULL,0.7323259,NULL,-149.406843,-17.679742,NULL,NULL,NULL,NULL
Gabon,GAB,1964,NULL,0.3632830,410.90,11.609444,-0.803689,NULL,NULL,NULL,NULL
"Gambia, The",GMB,1964,NULL,0.0740786,NULL,-15.310139,13.443182,NULL,NULL,NULL,NULL
Georgia,GEO,1964,NULL,NULL,NULL,43.356892,42.315407,NULL,NULL,NULL,NULL
Germany,DEU,1964,0.5555674,NULL,NULL,10.451526,51.165691,NULL,99.3976110,NULL,84.4487515
Ghana,GHA,1964,NULL,0.2193045,230.09,-1.023194,7.946527,NULL,NULL,NULL,NULL
Gibraltar,GIB,1964,NULL,2.1589214,NULL,-5.345374,36.137741,NULL,NULL,NULL,NULL
Greece,GRC,1964,1.8413042,1.5537644,783.71,21.824312,39.074208,NULL,98.1937115,NULL,49.2095358
Greenland,GRL,1964,NULL,8.3872872,NULL,-42.604303,71.706936,NULL,NULL,NULL,NULL
Grenada,GRD,1964,NULL,0.2337604,NULL,-61.604171,12.262776,NULL,NULL,NULL,NULL
Guam,GUM,1964,NULL,NULL,NULL,144.793731,13.444304,NULL,NULL,NULL,NULL
Guatemala,GTM,1964,NULL,0.3816503,279.93,-90.230759,15.783471,NULL,NULL,NULL,NULL
Guinea,GIN,1964,NULL,0.1874768,NULL,-9.696645,9.945587,NULL,NULL,NULL,NULL
Guinea-Bissau,GNB,1964,NULL,0.0914149,NULL,-15.180413,11.803749,NULL,NULL,NULL,NULL
Guyana,GUY,1964,NULL,1.0175970,305.37,-58.930180,4.860416,NULL,NULL,NULL,NULL
Haiti,HTI,1964,NULL,0.0719772,77.86,-72.285215,18.971187,NULL,NULL,NULL,NULL
"Heavily indebted poor countries (HIPC)",HPC,1964,NULL,0.1339444,110.31,NULL,NULL,NULL,NULL,NULL,NULL
"High income",HIC,1964,2.7887901,8.6116257,1748.87,NULL,NULL,NULL,94.7831871,NULL,46.5924162
Honduras,HND,1964,NULL,0.3168356,200.43,-86.241905,15.199999,NULL,NULL,NULL,NULL
"Hong Kong SAR, China",HKG,1964,NULL,1.2053826,629.59,114.109497,22.396428,NULL,NULL,NULL,NULL
Hungary,HUN,1964,NULL,6.1662408,NULL,19.503304,47.162494,NULL,NULL,NULL,NULL
"IBRD only",IBD,1964,0.2693909,1.9138323,NULL,NULL,NULL,NULL,90.8647200,NULL,NULL
Iceland,ISL,1964,31.8325834,6.9271786,2297.92,-19.020835,64.963051,NULL,68.1674166,NULL,0.0000000
"IDA & IBRD total",IBT,1964,0.2693909,1.6514303,NULL,NULL,NULL,NULL,90.8647200,NULL,NULL
"IDA blend",IDB,1964,NULL,0.4597889,120.14,NULL,NULL,NULL,NULL,NULL,NULL
"IDA only",IDX,1964,NULL,0.2374305,NULL,NULL,NULL,NULL,NULL,NULL,NULL
"IDA total",IDA,1964,NULL,0.3233818,108.89,NULL,NULL,NULL,NULL,NULL,NULL
India,IND,1964,NULL,0.3081687,115.54,78.962880,20.593684,NULL,NULL,NULL,NULL
Indonesia,IDN,1964,NULL,0.2294582,NULL,113.921327,-0.789275,NULL,NULL,NULL,NULL
"Iran, Islamic Rep.",IRN,1964,NULL,1.9566099,221.32,53.688046,32.427908,NULL,NULL,NULL,NULL
Iraq,IRQ,1964,NULL,1.1174098,288.16,43.679291,33.223191,NULL,NULL,NULL,NULL
Ireland,IRL,1964,1.5452000,4.9647231,965.14,-8.243890,53.412910,NULL,72.2861599,NULL,33.5501035
"Isle of Man",IMN,1964,NULL,NULL,NULL,-4.548056,54.236107,NULL,NULL,NULL,NULL
Israel,ISR,1964,NULL,3.6966323,1375.89,34.851612,31.046051,NULL,NULL,NULL,NULL
Italy,ITA,1964,9.7436970,3.4050534,1222.54,12.567380,41.871940,NULL,90.1198094,NULL,4.8924654
Jamaica,JAM,1964,NULL,2.3496917,518.81,-77.297508,18.109581,NULL,NULL,NULL,NULL
Japan,JPN,1964,4.7963305,3.7080207,843.62,138.252924,36.204824,NULL,95.2036703,NULL,29.3248592
Jordan,JOR,1964,NULL,1.1276383,NULL,36.238414,30.585164,NULL,NULL,NULL,NULL
Kazakhstan,KAZ,1964,NULL,NULL,NULL,66.923684,48.019573,NULL,NULL,NULL,NULL
Kenya,KEN,1964,NULL,0.3065544,108.29,37.906193,-0.023559,NULL,NULL,NULL,NULL
Kiribati,KIR,1964,NULL,0.4039258,NULL,-168.734039,-3.370417,NULL,NULL,NULL,NULL
"Korea, Dem. People's Rep.",PRK,1964,NULL,2.9031670,NULL,127.510093,40.339852,NULL,NULL,NULL,NULL
"Korea, Rep.",KOR,1964,NULL,0.7939619,123.60,127.766922,35.907757,NULL,NULL,NULL,NULL
